 [{
     "id": "16",
     "address": "XXV Luglio",
     "number": "1",
     "city": "San Giusto Canavese",
     "district": "Torino",
     "state": "Italia",
     "postal_code": "10090",
     "latitude": "45.299473",
     "longitude": "7.811344",
     "email": "mottura@mottura.com",
     "telephone": "+39 0124 49.49.49",
     "fax": "+39 0124 49.49.18",
     "title": "MOTTURA SPA - Italia",
     "subtitle": "",
     "description": "",
     "label": "Mottura Point"
 }, {
     "id": "24",
     "address": "Leuvensesteenweg",
     "number": "202",
     "city": "Boutersem",
     "district": "Boutersem",
     "state": "Belgium",
     "postal_code": "3370",
     "latitude": "50.834501",
     "longitude": "4.853414",
     "email": "mottura@mottura.be",
     "telephone": "(32) 16\/72.03.66",
     "fax": "(32) 16\/73.58.91",
     "title": "N.V. Mottura S.A. - Belgio",
     "subtitle": "",
     "description": "",
     "label": "Mottura Point"
 }, {
     "id": "50",
     "address": "Via Pian Masino ",
     "number": "8",
     "city": "Arenzano",
     "district": "GE",
     "state": "ITALIA",
     "postal_code": "16011",
     "latitude": "44.401630",
     "longitude": "8.659720",
     "email": "info@velaria.it",
     "telephone": "010\/9130005",
     "fax": " ",
     "title": "Velaria s.r.l.",
     "subtitle": "",
     "description": "",
     "label": "Mottura Point"
 }, {
     "id": "51",
     "address": "Via Roma",
     "number": "18",
     "city": "Cassolnovo",
     "district": "PV",
     "state": "ITALIA",
     "postal_code": "27023",
     "latitude": "45.361736",
     "longitude": "8.809880",
     "email": "tessitura.rapetti@hotmail.it",
     "telephone": "0381\/92502",
     "fax": "",
     "title": "Tessitura e Confezioni Rapetti s.r.l.",
     "subtitle": "",
     "description": "",
     "label": "Mottura Point"
 }, {
     "id": "53",
     "address": "Strada Padana Est",
     "number": "8",
     "city": "Magenta",
     "district": "MI",
     "state": "ITALIA",
     "postal_code": "20113",
     "latitude": "45.469383",
     "longitude": "8.900152",
     "email": "info@carlobertoglio.it",
     "telephone": "02\/9790296",
     "fax": "",
     "title": "Carlo Bertoglio s.r.l.",
     "subtitle": "",
     "description": "",
     "label": "Mottura Point"
 }, {
     "id": "55",
     "address": "Corso Roma",
     "number": "115",
     "city": "Lodi",
     "district": "LO",
     "state": "ITALIA",
     "postal_code": "26900",
     "latitude": "45.311480",
     "longitude": "9.505241",
     "email": "fabio.gittardi@alice.it",
     "telephone": "0371\/67707",
     "fax": "",
     "title": "Linea s.r.l.",
     "subtitle": "",
     "description": "",
     "label": "Mottura Point"
 }, {
     "id": "56",
     "address": "Via Guastoni",
     "number": "16",
     "city": "Podenzano",
     "district": "PC",
     "state": "ITALIA",
     "postal_code": "29027",
     "latitude": "44.956760",
     "longitude": "9.682396",
     "email": "info@tendalconfezioni.it",
     "telephone": "0523\/556643",
     "fax": "",
     "title": "TENDAL S.A.S di ROBERTO CANTARELLI & C.",
     "subtitle": "",
     "description": "",
     "label": "Mottura Point"
 }, {
     "id": "57",
     "address": "Via M. Greppi ",
     "number": "3",
     "city": "Cedrate di Gallarate",
     "district": "VA",
     "state": "ITALIA",
     "postal_code": "21013",
     "latitude": "45.662363",
     "longitude": "8.792127",
     "email": "ambassador@ambassadorstyle.com",
     "telephone": "0331\/794230",
     "fax": "",
     "title": "AMBASSADOR'S STYLE S.R.L.",
     "subtitle": "",
     "description": "",
     "label": "Mottura Point"
 }, {
     "id": "58",
     "address": "Via Milano",
     "number": "5",
     "city": "Brenna",
     "district": "CO",
     "state": "ITALIA",
     "postal_code": "22040",
     "latitude": "45.743020",
     "longitude": "9.187812",
     "email": "info@manifatturaballabio.com",
     "telephone": "031\/797000",
     "fax": "",
     "title": "Manifattura G. Ballabio & C. s.n.c.",
     "subtitle": "",
     "description": "",
     "label": "Mottura Point"
 }, {
     "id": "59",
     "address": "Via Varesina",
     "number": "253",
     "city": "Breccia",
     "district": "CO",
     "state": "ITALIA",
     "postal_code": "22100",
     "latitude": "45.790232",
     "longitude": "9.064310",
     "email": "tappezziere.moretti@gmail.com",
     "telephone": "0315\/21480",
     "fax": "",
     "title": "Moretti Guido Arredamenti s.n.c.",
     "subtitle": "",
     "description": "",
     "label": "Mottura Point"
 }, {
     "id": "60",
     "address": "Via Briantina",
     "number": "60\/68",
     "city": "Seregno",
     "district": "MB",
     "state": "ITALIA",
     "postal_code": "20038",
     "latitude": "45.660340",
     "longitude": "9.214160",
     "email": "r.veronese@dellortotessuti.it",
     "telephone": "0362\/229046",
     "fax": "",
     "title": "Dell'Orto Gianpaolo S.p.A.",
     "subtitle": "",
     "description": "",
     "label": "Mottura Point"
 }, {
     "id": "61",
     "address": "Via Monterotondo",
     "number": "10",
     "city": "Lecco",
     "district": "LC",
     "state": "ITALIA",
     "postal_code": "23900",
     "latitude": "45.862153",
     "longitude": "9.395046",
     "email": "roberto.panzeri@virgilio.it",
     "telephone": "341498338",
     "fax": "",
     "title": "Panzeri Roberto",
     "subtitle": "",
     "description": "",
     "label": "Mottura Point"
 }, {
     "id": "62",
     "address": "Via Giorgione ",
     "number": "7",
     "city": "San Don\u00e0 di Piave",
     "district": "VE",
     "state": "ITALIA",
     "postal_code": "30027",
     "latitude": "45.631350",
     "longitude": "12.586109",
     "email": "contract@michelingroupsrl.it",
     "telephone": "0421\/41337",
     "fax": "",
     "title": "Michelin A & G Group s.r.l.",
     "subtitle": "",
     "description": "",
     "label": "Mottura Point"
 }, {
     "id": "63",
     "address": "Via Assarotti",
     "number": "74\/84",
     "city": "Genova",
     "district": "GE",
     "state": "ITALIA",
     "postal_code": "16122",
     "latitude": "44.412890",
     "longitude": "8.944615",
     "email": "info.velaria@tendesrl.it",
     "telephone": "10884233",
     "fax": "",
     "title": "Tende Srl by Velaria",
     "subtitle": "",
     "description": "",
     "label": "Mottura Point"
 }, {
     "id": "64",
     "address": "Via Crimea",
     "number": "46",
     "city": "Genova",
     "district": "GE",
     "state": "ITALIA",
     "postal_code": "16129",
     "latitude": "44.404077",
     "longitude": "8.956076",
     "email": "marioquistelli@fastwebnet.it",
     "telephone": "010\/318327",
     "fax": "",
     "title": "Taddei Anna Augusta",
     "subtitle": "",
     "description": "",
     "label": "Mottura Point"
 }, {
     "id": "65",
     "address": "Via Casal Del Marmo",
     "number": "258B\/C",
     "city": "Roma",
     "district": "RO",
     "state": "ITALIA",
     "postal_code": "135",
     "latitude": "41.950850",
     "longitude": "12.395974",
     "email": "info@emmedigroupsrl.it",
     "telephone": "63093183",
     "fax": "",
     "title": "Emmedi Group s.r.l.",
     "subtitle": "",
     "description": "",
     "label": "Mottura Point"
 }, {
     "id": "67",
     "address": "Via Monte Emilius",
     "number": "16",
     "city": "Aosta",
     "district": "AO",
     "state": "ITALIA",
     "postal_code": "11100",
     "latitude": "45.738933",
     "longitude": "7.330038",
     "email": "arredotende@libero.it",
     "telephone": "0165\/43906",
     "fax": "",
     "title": "ARREDOTENDE SAS di ZIMARA C. & C.",
     "subtitle": "",
     "description": "",
     "label": "Mottura Point"
 }, {
     "id": "68",
     "address": "Via Challand",
     "number": "34",
     "city": "Aosta",
     "district": "AO",
     "state": "ITALIA",
     "postal_code": "11100",
     "latitude": "45.735106",
     "longitude": "7.317777",
     "email": "ancillai.arredamenti@libero.it",
     "telephone": "0165\/44401",
     "fax": "",
     "title": "ANCILLAI ARREDAMENTI S.R.L.",
     "subtitle": "",
     "description": "",
     "label": "Mottura Point"
 }, {
     "id": "69",
     "address": "Corso Ivrea",
     "number": "101",
     "city": "Aosta",
     "district": "AO",
     "state": "ITALIA",
     "postal_code": "11100",
     "latitude": "45.740050",
     "longitude": "7.344010",
     "email": "ellebi2@live.it",
     "telephone": "0165\/44328",
     "fax": "",
     "title": "ElleBi di Barbero Vitaliano & C. s.n.c.",
     "subtitle": "",
     "description": "",
     "label": "Mottura Point"
 }, {
     "id": "70",
     "address": "Corso Garibaldi",
     "number": "121",
     "city": "Gattinara",
     "district": "VC",
     "state": "ITALIA",
     "postal_code": "13045",
     "latitude": "45.613591",
     "longitude": "8.366000",
     "email": "fllipasella@legalmail.it",
     "telephone": "0163\/834553",
     "fax": "",
     "title": "F.lli Pasella s.n.c.",
     "subtitle": "",
     "description": "",
     "label": "Mottura Point"
 }, {
     "id": "71",
     "address": "Via De Lorenzi",
     "number": "1",
     "city": "Intra",
     "district": "VB",
     "state": "ITALIA",
     "postal_code": "28044",
     "latitude": "45.937762",
     "longitude": "8.572652",
     "email": "ainatappezziere@libero.it",
     "telephone": "0323\/402471 ",
     "fax": "",
     "title": "Aina Eugenio",
     "subtitle": "",
     "description": "",
     "label": "Mottura Point"
 }, {
     "id": "72",
     "address": "Via Italia",
     "number": "15",
     "city": "Assemini",
     "district": "CA",
     "state": "ITALIA",
     "postal_code": "9032",
     "latitude": "39.300997",
     "longitude": "8.995030",
     "email": "emporiodeltessuto@gmail.com",
     "telephone": "070\/946004",
     "fax": "",
     "title": "Iemme s.n.c.",
     "subtitle": "",
     "description": "",
     "label": "Mottura Point"
 }, {
     "id": "73",
     "address": "Z.I. Predda Niedda Nord str.",
     "number": "5,14",
     "city": "Sassari",
     "district": "SS",
     "state": "ITALIA",
     "postal_code": "7100",
     "latitude": "40.738001",
     "longitude": "8.532893",
     "email": "pirinoanto@tiscali.it",
     "telephone": "079\/260758",
     "fax": "",
     "title": "Pirino Tappezzeria s.r.l.",
     "subtitle": "",
     "description": "",
     "label": "Mottura Point"
 }, {
     "id": "74",
     "address": "Via Dei Muratori snc",
     "number": "",
     "city": "Oristano",
     "district": "OR",
     "state": "ITALIA",
     "postal_code": "9170",
     "latitude": "39.906182",
     "longitude": "8.588386",
     "email": "filippo.sanna@tiscali.it",
     "telephone": "0783\/212428",
     "fax": "",
     "title": "Tencor di Filippo Sanna & C s.a.s.",
     "subtitle": "",
     "description": "",
     "label": "Mottura Point"
 }, {
     "id": "75",
     "address": "Via Matteotti",
     "number": "18",
     "city": "Senorb",
     "district": "CA",
     "state": "ITALIA",
     "postal_code": "9040",
     "latitude": "39.538494",
     "longitude": "9.133079",
     "email": "quartanasrl@ymail.com",
     "telephone": "070\/9808304",
     "fax": "",
     "title": "Quartana s.r.l.",
     "subtitle": "",
     "description": "",
     "label": "Mottura Point"
 }, {
     "id": "76",
     "address": "Via Newton",
     "number": "3",
     "city": "Cagliari",
     "district": "CA",
     "state": "ITALIA",
     "postal_code": "9131",
     "latitude": "39.237693",
     "longitude": "9.142767",
     "email": "info@lineamtendaggi.it",
     "telephone": "070\/491888",
     "fax": "",
     "title": "Linea M s.a.s.",
     "subtitle": "",
     "description": "",
     "label": "Mottura Point"
 }, {
     "id": "78",
     "address": "Via Marocco ang. Via Mauritius Z.I.",
     "number": "",
     "city": "Olbia",
     "district": "OT",
     "state": "ITALIA",
     "postal_code": "7026",
     "latitude": "40.923576",
     "longitude": "9.496443",
     "email": "info@stiltende.com",
     "telephone": "0789\/53865",
     "fax": "",
     "title": "Stiltende s.n.c.",
     "subtitle": "",
     "description": "",
     "label": "Mottura Point"
 }, {
     "id": "79",
     "address": "Vico 1 Sassari",
     "number": "1",
     "city": "Ovodda",
     "district": "NU",
     "state": "ITALIA",
     "postal_code": "8020",
     "latitude": "40.096619",
     "longitude": "9.160913",
     "email": "mameli.r@tiscali.it",
     "telephone": "0784\/54071",
     "fax": "",
     "title": "Mameli Roberto",
     "subtitle": "",
     "description": "",
     "label": "Mottura Point"
 }, {
     "id": "80",
     "address": "Via Togliatti",
     "number": "13",
     "city": "Canicatti'",
     "district": "AG",
     "state": "ITALIA",
     "postal_code": "92024",
     "latitude": "37.352183",
     "longitude": "13.845417",
     "email": "styltenda@libero.it",
     "telephone": "0922\/858579",
     "fax": "",
     "title": "Styltenda a.r.l.",
     "subtitle": "",
     "description": "",
     "label": "Mottura Point"
 }, {
     "id": "81",
     "address": "Via Dello Sport ",
     "number": "2",
     "city": "San Salvo",
     "district": "CH",
     "state": "ITALIA",
     "postal_code": "66050",
     "latitude": "42.050055",
     "longitude": "14.730700",
     "email": "info@talialuigi.com",
     "telephone": "0873\/343394",
     "fax": "",
     "title": "Talia Luigi s.r.l.",
     "subtitle": "",
     "description": "",
     "label": "Mottura Point"
 }, {
     "id": "82",
     "address": "Via Paolo Marzi ",
     "number": "59",
     "city": "Modugno",
     "district": "BA",
     "state": "ITALIA",
     "postal_code": "70026",
     "latitude": "41.089453",
     "longitude": "16.781753",
     "email": "euroadriatic@libero.it",
     "telephone": "080\/5353866",
     "fax": "",
     "title": "Euro Adriatic s.a.s.",
     "subtitle": "",
     "description": "",
     "label": "Mottura Point"
 }, {
     "id": "84",
     "address": "Via Lodi ",
     "number": "76",
     "city": "Lecce",
     "district": "LE",
     "state": "ITALIA",
     "postal_code": "73100",
     "latitude": "40.353315",
     "longitude": "18.195242",
     "email": "info@artende.net",
     "telephone": "0832\/091393",
     "fax": "",
     "title": "Artende di Ponzano Diego",
     "subtitle": "",
     "description": "",
     "label": "Mottura Point"
 }, {
     "id": "85",
     "address": "Corso Marconi",
     "number": "6",
     "city": "Torino",
     "district": "TO",
     "state": "ITALIA",
     "postal_code": "10125",
     "latitude": "45.056690",
     "longitude": "7.677763",
     "email": "info@tecnotendatorino.it",
     "telephone": "0116688710   ",
     "fax": "",
     "title": "Tecnotenda s.n.c.",
     "subtitle": "",
     "description": "",
     "label": "Mottura Point"
 }, {
     "id": "86",
     "address": "Viale Aldo Moro",
     "number": "99",
     "city": "Brindisi",
     "district": "BR",
     "state": "ITALIA",
     "postal_code": "72100",
     "latitude": "40.627371",
     "longitude": "17.933944",
     "email": "corredicordisco@libero.it",
     "telephone": "0831\/511133",
     "fax": "",
     "title": "Corredi Cordisco s.a.s.",
     "subtitle": "",
     "description": "",
     "label": "Mottura Point"
 }, {
     "id": "88",
     "address": "Corso Vittorio Veneto",
     "number": "97\/E",
     "city": "Sant'Eufemia D'Aspromonte",
     "district": "RC",
     "state": "ITALIA",
     "postal_code": "89027",
     "latitude": "38.265703",
     "longitude": "15.860029",
     "email": "tendaggiprinci@libero.it",
     "telephone": "0966\/961965",
     "fax": "",
     "title": "PRINCI TENDAGGI di SACCA' VINCENZA",
     "subtitle": "",
     "description": "",
     "label": "Mottura Point"
 }, {
     "id": "89",
     "address": "Z.I. Del Fullone Contrada Corso",
     "number": "",
     "city": "San Marco Argentano",
     "district": "CS",
     "state": "ITALIA",
     "postal_code": "87018",
     "latitude": "39.596938",
     "longitude": "16.191913",
     "email": "stilcasa_et@libero.it",
     "telephone": "0984\/518821",
     "fax": "",
     "title": "Stilcasa di Termine Eugenio",
     "subtitle": "",
     "description": "",
     "label": "Mottura Point"
 }, {
     "id": "90",
     "address": "Via Caracciolo",
     "number": "18",
     "city": "Catanzaro Lido",
     "district": "CZ",
     "state": "ITALIA",
     "postal_code": "88063",
     "latitude": "38.822558",
     "longitude": "16.617940",
     "email": "casadeltendaggiocz@tiscali.it",
     "telephone": "0961\/32560",
     "fax": "",
     "title": "Casa Del Tendaggio di Stranieri Giuseppina",
     "subtitle": "",
     "description": "",
     "label": "Mottura Point"
 }, {
     "id": "91",
     "address": "Via Roma",
     "number": "",
     "city": "Porto Salvo Vibo Marina",
     "district": "VV",
     "state": "ITALIA",
     "postal_code": "89811",
     "latitude": "38.706388",
     "longitude": "16.076498",
     "email": "info@realtenda.com",
     "telephone": "0963\/561290",
     "fax": "",
     "title": "Real Tenda S.a.s.",
     "subtitle": "",
     "description": "",
     "label": "Mottura Point"
 }, {
     "id": "92",
     "address": "Via Luigi Mascagni",
     "number": "23",
     "city": "Isola Capo Rizzuto",
     "district": "KR",
     "state": "ITALIA",
     "postal_code": "88841",
     "latitude": "38.961663",
     "longitude": "17.092128",
     "email": "lucaviola@atelierviola.it",
     "telephone": "0962\/793061",
     "fax": "",
     "title": "L'Atelier delle Tende di Viola Luca",
     "subtitle": "",
     "description": "",
     "label": "Mottura Point"
 }, {
     "id": "93",
     "address": "Via Gianbattista Ruoppolo",
     "number": "109",
     "city": "Napoli",
     "district": "NA",
     "state": "ITALIA",
     "postal_code": "80128",
     "latitude": "40.850200",
     "longitude": "14.227244",
     "email": "laromantica@inwind.it",
     "telephone": "081\/5783379",
     "fax": "",
     "title": "Tappezzeria e Tendaggi La Romantica",
     "subtitle": "",
     "description": "",
     "label": "Mottura Point"
 }, {
     "id": "94",
     "address": "Corso Italia",
     "number": "285",
     "city": "Sorrento",
     "district": "NA",
     "state": "ITALIA",
     "postal_code": "80067",
     "latitude": "40.629136",
     "longitude": "14.389543",
     "email": "info@idealdecoration.it",
     "telephone": "081\/8783033",
     "fax": "",
     "title": "Ideal Decoration di Iaccarino Gennaro s.n.c.",
     "subtitle": "",
     "description": "",
     "label": "Mottura Point"
 }, {
     "id": "96",
     "address": "Via Nazionale I Vico 2",
     "number": "18",
     "city": "Santa Maria a Vico",
     "district": "CE",
     "state": "ITALIA",
     "postal_code": "81028",
     "latitude": "41.025860",
     "longitude": "14.461220",
     "email": "deluciatendaggi@alice.it",
     "telephone": "0823\/809139",
     "fax": "",
     "title": "De Lucia s.r.l.",
     "subtitle": "",
     "description": "",
     "label": "Mottura Point"
 }, {
     "id": "97",
     "address": "Via Confalonieri Centro",
     "number": "",
     "city": "Battipaglia",
     "district": "SA",
     "state": "ITALIA",
     "postal_code": "84091",
     "latitude": "40.605997",
     "longitude": "14.990334",
     "email": "info@stasitendaggi.net",
     "telephone": "3.336.882.994",
     "fax": "",
     "title": "Stasi s.n.c.",
     "subtitle": "",
     "description": "",
     "label": "Mottura Point"
 }, {
     "id": "98",
     "address": "Via Nazionale Calore di Mirabella",
     "number": "8",
     "city": "Mirabella Eclano",
     "district": "AV",
     "state": "ITALIA",
     "postal_code": "83036",
     "latitude": "41.043236",
     "longitude": "14.996742",
     "email": "monica_tendaggi@libero.it",
     "telephone": "0825\/449842",
     "fax": "",
     "title": "Monica Tendaggi",
     "subtitle": "",
     "description": "",
     "label": "Mottura Point"
 }, {
     "id": "99",
     "address": "Contrada Piano Delle Logge",
     "number": "6",
     "city": "San Marco Dei Cavoti",
     "district": "BN",
     "state": "ITALIA",
     "postal_code": "82029",
     "latitude": "41.309193",
     "longitude": "14.879091",
     "email": "pianflex@libero.it",
     "telephone": "0824\/993267",
     "fax": "",
     "title": "Pianflex di Ricci Giovanna",
     "subtitle": "",
     "description": "",
     "label": "Mottura Point"
 }, {
     "id": "100",
     "address": "Via Adriatico",
     "number": "15",
     "city": "Potenza",
     "district": "PZ",
     "state": "ITALIA",
     "postal_code": "85100",
     "latitude": "40.643176",
     "longitude": "15.790738",
     "email": "targetpz@virgilio.it",
     "telephone": "97152275",
     "fax": "",
     "title": "Target s.a.s.",
     "subtitle": "",
     "description": "",
     "label": "Mottura Point"
 }, {
     "id": "101",
     "address": "Via Cannelle",
     "number": "77 A-B",
     "city": "Montefiascone",
     "district": "VT",
     "state": "ITALIA",
     "postal_code": "1027",
     "latitude": "42.541740",
     "longitude": "12.035068",
     "email": "andreabartoleschi@hotmail.it",
     "telephone": "0761\/820368",
     "fax": "",
     "title": "Bartoleschi Andrea",
     "subtitle": "",
     "description": "",
     "label": "Mottura Point"
 }, {
     "id": "102",
     "address": "Via Angelo Sacchetti Sassetti",
     "number": "02\/04\/2006",
     "city": "Rieti",
     "district": "RI",
     "state": "ITALIA",
     "postal_code": "2100",
     "latitude": "42.404509",
     "longitude": "12.856728",
     "email": "myosotis@tessutiarredo.it",
     "telephone": "746204343",
     "fax": "",
     "title": "Myosotis di Roberti Stefania",
     "subtitle": "",
     "description": "",
     "label": "Mottura Point"
 }, {
     "id": "103",
     "address": "Corso Roma",
     "number": "87",
     "city": "Cologno Monzese",
     "district": "MI",
     "state": "ITALIA",
     "postal_code": "20093",
     "latitude": "45.533766",
     "longitude": "9.282600",
     "email": "info@fapatende.it",
     "telephone": "02\/2541638",
     "fax": "",
     "title": "Fa.Pa s.n.c.",
     "subtitle": "",
     "description": "",
     "label": "Mottura Point"
 }, {
     "id": "104",
     "address": "Via Cesalpino",
     "number": "5",
     "city": "Milano",
     "district": "MI",
     "state": "ITALIA",
     "postal_code": "20128",
     "latitude": "45.508203",
     "longitude": "9.235613",
     "email": "info@lmtende.com",
     "telephone": "02\/2563160",
     "fax": "",
     "title": "Elle Emme di Lazzarotto Michele",
     "subtitle": "",
     "description": "",
     "label": "Mottura Point"
 }, {
     "id": "105",
     "address": "Via Melzi D'Eril",
     "number": "3",
     "city": "Milano",
     "district": "MI",
     "state": "ITALIA",
     "postal_code": "20154",
     "latitude": "45.477693",
     "longitude": "9.174237",
     "email": "Info@fstasi.com",
     "telephone": "02\/55191417",
     "fax": "",
     "title": "Tappezzeria Stasi s.a.s.",
     "subtitle": "",
     "description": "",
     "label": "Mottura Point"
 }, {
     "id": "106",
     "address": "VIA G. ROSSINI",
     "number": "1",
     "city": "VARESE",
     "district": "MI",
     "state": "ITALIA",
     "postal_code": "21100",
     "latitude": "45.772280",
     "longitude": "8.769160",
     "email": "jt@jollytenda.com",
     "telephone": "234934266",
     "fax": " ",
     "title": "JOLLY SERVICE S.R.L.",
     "subtitle": "",
     "description": "",
     "label": "Mottura Point"
 }, {
     "id": "107",
     "address": "Via Platani",
     "number": "1286",
     "city": "Drizzona",
     "district": "CR",
     "state": "ITALIA",
     "postal_code": "26034",
     "latitude": "45.134874",
     "longitude": "10.346352",
     "email": "quarantani@live.it",
     "telephone": "0375\/98426",
     "fax": "",
     "title": "Quarantani Massimo",
     "subtitle": "",
     "description": "",
     "label": "Mottura Point"
 }, {
     "id": "108",
     "address": "Via Leopardi",
     "number": "6\/A",
     "city": "Soresina",
     "district": "CR",
     "state": "ITALIA",
     "postal_code": "26015",
     "latitude": "45.286238",
     "longitude": "9.850026",
     "email": "info@ghimenton.it",
     "telephone": "0374\/343688",
     "fax": "",
     "title": "Ghimenton s.a.s.",
     "subtitle": "",
     "description": "",
     "label": "Mottura Point"
 }, {
     "id": "109",
     "address": "Via Delle Industrie",
     "number": "26",
     "city": "Vescovato",
     "district": "CR",
     "state": "ITALIA",
     "postal_code": "26039",
     "latitude": "45.168148",
     "longitude": "10.166311",
     "email": "info@marcoromani.it",
     "telephone": "0372\/830355",
     "fax": "",
     "title": "Romani Marco",
     "subtitle": "",
     "description": "",
     "label": "Mottura Point"
 }, {
     "id": "110",
     "address": "Via Provinciale",
     "number": "34",
     "city": "San Nicolo di Ricardi",
     "district": "VV",
     "state": "ITALIA",
     "postal_code": "89866",
     "latitude": "38.634250",
     "longitude": "15.852740",
     "email": "dettagli.di.ellegi@tiscali.it",
     "telephone": "0963\/665749",
     "fax": "",
     "title": "Ellegi s.a.s.",
     "subtitle": "",
     "description": "",
     "label": "Mottura Point"
 }, {
     "id": "111",
     "address": "Via Del Torrione Prolungamento",
     "number": "68",
     "city": "Reggio Calabria",
     "district": "RC",
     "state": "ITALIA",
     "postal_code": "89123",
     "latitude": "38.111301",
     "longitude": "15.647291",
     "email": "gigipin1945@libero.it",
     "telephone": "0965\/29337",
     "fax": "",
     "title": "CASA MIA di PINTUS PIERLUIGI",
     "subtitle": "",
     "description": "",
     "label": "Mottura Point"
 }, {
     "id": "112",
     "address": "Via Ventuno Agosto",
     "number": "107\/109",
     "city": "Reggio Calabria",
     "district": "RC",
     "state": "ITALIA",
     "postal_code": "89127",
     "latitude": "38.103182",
     "longitude": "15.643059",
     "email": "domenicovazzana@yahoo.it",
     "telephone": "0965\/24920",
     "fax": "",
     "title": "Stedom s.r.l.",
     "subtitle": "",
     "description": "",
     "label": "Mottura Point"
 }, {
     "id": "113",
     "address": "Viale A. Moro Tr. Soccorso",
     "number": "58\/B",
     "city": "Reggio Calabria",
     "district": "RC",
     "state": "ITALIA",
     "postal_code": "89129",
     "latitude": "38.088711",
     "longitude": "15.635196",
     "email": "info@iltendaggista.it",
     "telephone": "0965\/621999",
     "fax": "",
     "title": "Il Tendaggista di Bagnato Basilio",
     "subtitle": "",
     "description": "",
     "label": "Mottura Point"
 }, {
     "id": "115",
     "address": "VIA MARRUCINA",
     "number": "155",
     "city": "GUARDIAGRELE",
     "district": "CH",
     "state": "ITALIA",
     "postal_code": "66016",
     "latitude": "42.198688",
     "longitude": "14.221141",
     "email": "info@arredo-casa.com",
     "telephone": "085\/4549784",
     "fax": "",
     "title": "ARREDO CASA S.N.C. di ALIMONTI LUIGI & C.",
     "subtitle": "",
     "description": "",
     "label": "Mottura Point"
 }, {
     "id": "116",
     "address": "Via Cesare Battisti",
     "number": "5",
     "city": "Giulianova",
     "district": "TE",
     "state": "ITALIA",
     "postal_code": "64021",
     "latitude": "42.808623",
     "longitude": "13.940184",
     "email": "creazionitappezzerie@gmail.com",
     "telephone": "085\/8000535",
     "fax": "",
     "title": "Creazioni Tappezzerie s.n.c.",
     "subtitle": "",
     "description": "",
     "label": "Mottura Point"
 }, {
     "id": "117",
     "address": "Viale Della Croce Rossa",
     "number": "48",
     "city": "L'Aquila",
     "district": "AQ",
     "state": "ITALIA",
     "postal_code": "67100",
     "latitude": "42.356633",
     "longitude": "13.391327",
     "email": "brunocapestrani@libero.it",
     "telephone": "0862\/410210",
     "fax": "",
     "title": "Bruno Capestrani s.n.c.",
     "subtitle": "",
     "description": "",
     "label": "Mottura Point"
 }, {
     "id": "120",
     "address": "Via Bissati ",
     "number": "14",
     "city": "Alessandria",
     "district": "AL",
     "state": "ITALIA",
     "postal_code": "15121",
     "latitude": "44.914990",
     "longitude": "8.612790",
     "email": "dinosburlati@hotmail.com",
     "telephone": "0131\/444935",
     "fax": "",
     "title": "Avant Garde s.n.c.",
     "subtitle": "",
     "description": "",
     "label": "Mottura Point"
 }, {
     "id": "121",
     "address": "Via Bruno Buozzi",
     "number": "49",
     "city": "Alessandria",
     "district": "AL",
     "state": "ITALIA",
     "postal_code": "15100",
     "latitude": "44.906736",
     "longitude": "8.624324",
     "email": "info@fratellifracasso.191.it",
     "telephone": "131234649",
     "fax": "",
     "title": "F.lli Fracasso s.n.c.",
     "subtitle": "",
     "description": "",
     "label": "Mottura Point"
 }, {
     "id": "122",
     "address": "Via Z. Massa",
     "number": "349",
     "city": "Sanremo",
     "district": "IM",
     "state": "ITALIA",
     "postal_code": "18038",
     "latitude": "43.821888",
     "longitude": "7.775693",
     "email": "info@domuspoint.it",
     "telephone": "0184\/591850",
     "fax": "",
     "title": "Domus Point di Luciano Verrando",
     "subtitle": "",
     "description": "",
     "label": "Mottura Point"
 }, {
     "id": "124",
     "address": "Via Delle Contramine",
     "number": "22",
     "city": "Pesaro",
     "district": "PU",
     "state": "ITALIA",
     "postal_code": "61121",
     "latitude": "43.907152",
     "longitude": "12.909689",
     "email": "info@agostinitende.com",
     "telephone": "72.135.679",
     "fax": "",
     "title": "Agostini Tende s.a.s.",
     "subtitle": "",
     "description": "",
     "label": "Mottura Point"
 }, {
     "id": "125",
     "address": "Via A. Grandi",
     "number": "49\/A",
     "city": "Ancona",
     "district": "AN",
     "state": "ITALIA",
     "postal_code": "60127",
     "latitude": "43.571777",
     "longitude": "13.504036",
     "email": "mariateresa@tendetendenze.it",
     "telephone": "71894089",
     "fax": "",
     "title": "Tende Tendenze s.r.l.",
     "subtitle": "",
     "description": "",
     "label": "Mottura Point"
 }, {
     "id": "126",
     "address": "Via Trento",
     "number": "12",
     "city": "Macerata",
     "district": "MC",
     "state": "ITALIA",
     "postal_code": "62100",
     "latitude": "43.301550",
     "longitude": "13.446480",
     "email": "maronisrl.e@libero.it",
     "telephone": "0733\/232712",
     "fax": "",
     "title": "Maroni s.r.l.",
     "subtitle": "",
     "description": "",
     "label": "Mottura Point"
 }, {
     "id": "127",
     "address": "VIA NAZIONALE NORD",
     "number": "46",
     "city": "FERMO",
     "district": "FM",
     "state": "ITALIA",
     "postal_code": "63900",
     "latitude": "43.158873",
     "longitude": "13.720088",
     "email": "tendashop@tiscali.it",
     "telephone": "0734\/675854",
     "fax": "",
     "title": "Tenda Shop di Fortunati Paolo",
     "subtitle": "",
     "description": "",
     "label": "Mottura Point"
 }, {
     "id": "128",
     "address": "Via P. Soriano",
     "number": "55",
     "city": "San Sisto",
     "district": "PG",
     "state": "ITALIA",
     "postal_code": "6100",
     "latitude": "43.074392",
     "longitude": "12.341083",
     "email": "info@bagnettipuntotenda.it",
     "telephone": "075\/5287981",
     "fax": "",
     "title": "Punto Tenda di Bagnetti Gianfranco",
     "subtitle": "",
     "description": "",
     "label": "Mottura Point"
 }, {
     "id": "129",
     "address": "VIA TAGLIAMENTO",
     "number": "33",
     "city": "MONTEFIASCONE",
     "district": "VT",
     "state": "ITALIA",
     "postal_code": "1027",
     "latitude": "42.544580",
     "longitude": "12.033670",
     "email": "pelorossotessuti@alice.it",
     "telephone": "0763\/624550",
     "fax": "",
     "title": "Mopetex s.a.s.",
     "subtitle": "",
     "description": "",
     "label": "Mottura Point"
 }, {
     "id": "130",
     "address": "Via Bissati",
     "number": "14",
     "city": "Alessandria",
     "district": "AL",
     "state": "ITALIA",
     "postal_code": "15121",
     "latitude": "44.914990",
     "longitude": "8.612790",
     "email": "dinosburlati@hotmail.com",
     "telephone": "0131\/444935   ",
     "fax": "",
     "title": "Avant Garde s.n.c.",
     "subtitle": "",
     "description": "",
     "label": "Mottura Point"
 }, {
     "id": "131",
     "address": "Piazza Stazione",
     "number": "3\/A",
     "city": "Salsomaggiore Terme",
     "district": "PR",
     "state": "ITALIA",
     "postal_code": "43039",
     "latitude": "44.818300",
     "longitude": "9.987280",
     "email": "zambaiti@gmail.com",
     "telephone": "0524\/572135",
     "fax": "",
     "title": "Zambaiti Eugenio & C. snc",
     "subtitle": "",
     "description": "",
     "label": "Mottura Point"
 }, {
     "id": "132",
     "address": "Borgo Santa Chiara",
     "number": "8",
     "city": "Parma",
     "district": "PR",
     "state": "ITALIA",
     "postal_code": "43121",
     "latitude": "44.800390",
     "longitude": "10.330239",
     "email": "magiesrl@libero.it",
     "telephone": "0521\/287062",
     "fax": "",
     "title": "Magie di Zampella Gian Paolo",
     "subtitle": "",
     "description": "",
     "label": "Mottura Point"
 }, {
     "id": "133",
     "address": "Via Gazzarrini",
     "number": "38",
     "city": "Livorno",
     "district": "LI",
     "state": "ITALIA",
     "postal_code": "57125",
     "latitude": "43.551621",
     "longitude": "10.315676",
     "email": "banchierilivorno@gmail.com",
     "telephone": "0586\/880252",
     "fax": "",
     "title": "Carlo Banchieri srl",
     "subtitle": "",
     "description": "",
     "label": "Mottura Point"
 }, {
     "id": "135",
     "address": "Via Sibilla",
     "number": "98",
     "city": "Marsala",
     "district": "TP",
     "state": "ITALIA",
     "postal_code": "91025",
     "latitude": "37.799388",
     "longitude": "12.430203",
     "email": "rallodiegotendaggi@libero.it",
     "telephone": "0923\/716655",
     "fax": " ",
     "title": "La Tenda di Rallo",
     "subtitle": "",
     "description": "",
     "label": "Mottura Point"
 }, {
     "id": "136",
     "address": "Piazza Luigi Pirandello",
     "number": "20",
     "city": "Caltanissetta",
     "district": "CL",
     "state": "ITALIA",
     "postal_code": "93100",
     "latitude": "37.493931",
     "longitude": "14.059403",
     "email": "professionaltenda@libero.it",
     "telephone": "0934\/25954",
     "fax": "",
     "title": "Professional Tenda snc",
     "subtitle": "",
     "description": "",
     "label": "Mottura Point"
 }, {
     "id": "137",
     "address": "Via Della Tecnica",
     "number": "8",
     "city": "Pomezia",
     "district": "RM",
     "state": "ITALIA",
     "postal_code": "40",
     "latitude": "41.670345",
     "longitude": "12.504770",
     "email": "ideatende2011@libero.it",
     "telephone": "06\/91250099",
     "fax": "",
     "title": "Idea Tende di Fusco Alessandro",
     "subtitle": "",
     "description": "",
     "label": "Mottura Point"
 }, {
     "id": "140",
     "address": "Via Della Pisana",
     "number": "439",
     "city": "Roma",
     "district": "RO",
     "state": "ITALIA",
     "postal_code": "163",
     "latitude": "41.859617",
     "longitude": "12.402669",
     "email": "satev.tende@tiscali.it",
     "telephone": "666153922",
     "fax": "",
     "title": "SATEV di Santonocita Alfio",
     "subtitle": "",
     "description": "",
     "label": "Mottura Point"
 }, {
     "id": "141",
     "address": "Viale principe umberto",
     "number": "146\/148",
     "city": "Caltagirone",
     "district": "CT",
     "state": "ITALIA",
     "postal_code": "95041",
     "latitude": "37.226796",
     "longitude": "14.521019",
     "email": "ued@aol.it",
     "telephone": "93323380",
     "fax": "",
     "title": "Utile e Dilettevole di Andrea Sales",
     "subtitle": "",
     "description": "",
     "label": "Mottura Point"
 }, {
     "id": "142",
     "address": "Via Volta",
     "number": "3\/H",
     "city": "Bolzano",
     "district": "BZ",
     "state": "ITALIA",
     "postal_code": "39100",
     "latitude": "46.478985",
     "longitude": "11.335715",
     "email": "info@marcellohomeliving.com",
     "telephone": "0471\/970958",
     "fax": "",
     "title": "Marcello Ugo s.n.c. dei F.lli Marcello",
     "subtitle": "",
     "description": "",
     "label": "Mottura Point"
 }, {
     "id": "147",
     "address": "Via Bergia",
     "number": "6",
     "city": "Borgo San Dalmazzo",
     "district": "CN",
     "state": "ITALIA",
     "postal_code": "12011",
     "latitude": "44.330867",
     "longitude": "7.488645",
     "email": "info@aelletendebiancheria.com",
     "telephone": "0171\/260286",
     "fax": "",
     "title": "Aelle s.n.c.",
     "subtitle": "",
     "description": "",
     "label": "Mottura Point"
 }, {
     "id": "148",
     "address": "Piazzale San Defendete",
     "number": "4",
     "city": "Confreria ",
     "district": "CN",
     "state": "ITALIA",
     "postal_code": "12100",
     "latitude": "44.394199",
     "longitude": "7.517781",
     "email": "info@tendenzecasa.com",
     "telephone": "0171\/613337",
     "fax": "",
     "title": "TENDENZE S.N.C. di GHIGO STEFANIA e ALBERIONE GUIDO",
     "subtitle": "",
     "description": "",
     "label": "Mottura Point"
 }, {
     "id": "149",
     "address": "Via Felice Cavallotti",
     "number": "7",
     "city": "Cuneo",
     "district": "CN",
     "state": "ITALIA",
     "postal_code": "12100",
     "latitude": "44.387461",
     "longitude": "7.543692",
     "email": "pamarredamenti@email.it",
     "telephone": "0171\/65913",
     "fax": "",
     "title": "PAM di MIGLIORE GIUSEPPE & C SNC",
     "subtitle": "",
     "description": "",
     "label": "Mottura Point"
 }, {
     "id": "150",
     "address": "Viale Sarrea",
     "number": "43",
     "city": "Dronero",
     "district": "CN",
     "state": "ITALIA",
     "postal_code": "12025",
     "latitude": "44.467304",
     "longitude": "7.351553",
     "email": "info@propostepiu.net",
     "telephone": "0171\/905554",
     "fax": "",
     "title": "PROPOSTE PIU' di BAGNASCHI MAURIZIO",
     "subtitle": "",
     "description": "",
     "label": "Mottura Point"
 }, {
     "id": "151",
     "address": "Strada Statale",
     "number": "140",
     "city": "Manta",
     "district": "CN",
     "state": "ITALIA",
     "postal_code": "12030",
     "latitude": "44.596697",
     "longitude": "7.482883",
     "email": "centropavimentietende@virgilio.it",
     "telephone": "0175\/86360",
     "fax": "",
     "title": "Centro Pavimenti e Tende srl",
     "subtitle": "",
     "description": "",
     "label": "Mottura Point"
 }, {
     "id": "152",
     "address": "Via Alfieri",
     "number": "7",
     "city": "Alba",
     "district": "CN",
     "state": "ITALIA",
     "postal_code": "12051",
     "latitude": "44.696997",
     "longitude": "8.035386",
     "email": "info@arca-alba.it",
     "telephone": "0173\/287262",
     "fax": "",
     "title": "Arca s.a.s",
     "subtitle": "",
     "description": "",
     "label": "Mottura Point"
 }, {
     "id": "153",
     "address": "Corso Volta",
     "number": "96\/98",
     "city": "Asti",
     "district": "AT",
     "state": "ITALIA",
     "postal_code": "14100",
     "latitude": "44.907736",
     "longitude": "8.217115",
     "email": "sigma.tende@inwind.it",
     "telephone": "0141\/271746",
     "fax": "",
     "title": "Sigma s.n.c.",
     "subtitle": "",
     "description": "",
     "label": "Mottura Point"
 }, {
     "id": "154",
     "address": "FRAZIONE QUARTO INFERIORE",
     "number": "275\/F",
     "city": "Asti",
     "district": "AT",
     "state": "ITALIA",
     "postal_code": "14100",
     "latitude": "44.916354",
     "longitude": "8.272095",
     "email": "info@astiteloni.it",
     "telephone": "0141\/293140",
     "fax": "",
     "title": "ASTI TELONI DI MARTINI GIOVANNI & C. S.N.C.",
     "subtitle": "",
     "description": "",
     "label": "Mottura Point"
 }, {
     "id": "155",
     "address": "Corso Valentino",
     "number": "253",
     "city": "Casale Monferrato",
     "district": "AL",
     "state": "ITALIA",
     "postal_code": "15033",
     "latitude": "45.120870",
     "longitude": "8.451158",
     "email": "info@strechdesign.it",
     "telephone": "0142\/455939   ",
     "fax": "",
     "title": "Strech Design srl",
     "subtitle": "",
     "description": "",
     "label": "Mottura Point"
 }, {
     "id": "156",
     "address": "Via Biagio Pelacani",
     "number": "8",
     "city": "Noceto",
     "district": "PR",
     "state": "ITALIA",
     "postal_code": "43015",
     "latitude": "44.809662",
     "longitude": "10.176261",
     "email": "info@marchesitende.it",
     "telephone": "0521\/625310",
     "fax": "",
     "title": "Tappezzeria Marchesi s.n.c.",
     "subtitle": "",
     "description": "",
     "label": "Mottura Point"
 }, {
     "id": "158",
     "address": "VIA DELLA LIBERAZIONE",
     "number": "5",
     "city": "ARPIOLA DI MULAZZO",
     "district": "MS",
     "state": "ITALIA",
     "postal_code": "54026",
     "latitude": "44.321705",
     "longitude": "9.905915",
     "email": "info@sabellicotuttotenda.it",
     "telephone": "0187\/831641",
     "fax": "",
     "title": "SABELLICO FRANCESCO",
     "subtitle": "",
     "description": "",
     "label": "Mottura Point"
 }, {
     "id": "159",
     "address": "VIA BOLOGNA",
     "number": "477",
     "city": "Prato",
     "district": "PO",
     "state": "ITALIA",
     "postal_code": "59100",
     "latitude": "43.911034",
     "longitude": "11.120391",
     "email": "franco.fanelli63@alice.it",
     "telephone": "0574\/22088",
     "fax": "",
     "title": "Fanelli Franco",
     "subtitle": "",
     "description": "",
     "label": "Mottura Point"
 }, {
     "id": "160",
     "address": "Via Tanzini",
     "number": "8",
     "city": "Pontassieve",
     "district": "FI",
     "state": "ITALIA",
     "postal_code": "50065",
     "latitude": "43.775859",
     "longitude": "11.440754",
     "email": "tappezzeriarigacci@tiscali.it",
     "telephone": "055\/8369814",
     "fax": "",
     "title": "Tappezzeria Rigacci Cramini & C s.n.c",
     "subtitle": "",
     "description": "",
     "label": "Mottura Point"
 }, {
     "id": "161",
     "address": "Viale Redi",
     "number": "39 C\/D",
     "city": "Firenze",
     "district": "FI",
     "state": "ITALIA",
     "postal_code": "50144",
     "latitude": "43.785996",
     "longitude": "11.240019",
     "email": "info@passamaneriamoderna.it",
     "telephone": "055\/3215099",
     "fax": "",
     "title": "Passamaneria Moderna s.n.c.",
     "subtitle": "",
     "description": "",
     "label": "Mottura Point"
 }, {
     "id": "162",
     "address": "Via P. Capponi",
     "number": "42222",
     "city": "Matassino Filgine V.no",
     "district": "FI",
     "state": "ITALIA",
     "postal_code": "50063",
     "latitude": "43.626271",
     "longitude": "11.481763",
     "email": "info@barbaglitende.com",
     "telephone": "055\/952225",
     "fax": "",
     "title": "Barbagli Andrea & C. s.n.c",
     "subtitle": "",
     "description": "",
     "label": "Mottura Point"
 }, {
     "id": "163",
     "address": "Via Nazionale",
     "number": "115",
     "city": "Somaggia",
     "district": "SO",
     "state": "ITALIA",
     "postal_code": "23028",
     "latitude": "46.246580",
     "longitude": "9.424050",
     "email": "artestende@alice.it",
     "telephone": "0343\/24348",
     "fax": "",
     "title": "Artes di Sottocornola Fabio",
     "subtitle": "",
     "description": "",
     "label": "Mottura Point"
 }, {
     "id": "164",
     "address": "Via Mazzini",
     "number": "59",
     "city": "Sondrio",
     "district": "SO",
     "state": "ITALIA",
     "postal_code": "23100",
     "latitude": "46.168078",
     "longitude": "9.865746",
     "email": "info@mazzucchigiuseppe.com",
     "telephone": "0342\/511057",
     "fax": "",
     "title": "Mazzucchi Giuseppe S.r.l.",
     "subtitle": "",
     "description": "",
     "label": "Mottura Point"
 }, {
     "id": "165",
     "address": "Viale Italia",
     "number": "24",
     "city": "Tirano",
     "district": "SO",
     "state": "ITALIA",
     "postal_code": "23037",
     "latitude": "46.217088",
     "longitude": "10.168185",
     "email": "latenda@spada012.191.it",
     "telephone": "0342\/701467",
     "fax": "",
     "title": "La Tenda di Spada Milena",
     "subtitle": "",
     "description": "",
     "label": "Mottura Point"
 }, {
     "id": "166",
     "address": "Via Dante",
     "number": "18",
     "city": "Clusone",
     "district": "BG",
     "state": "ITALIA",
     "postal_code": "24023",
     "latitude": "45.887056",
     "longitude": "9.949478",
     "email": "info@tessilcasa.it",
     "telephone": "0346\/22928",
     "fax": "",
     "title": "Tessilcasa di Savoldelli Aldo",
     "subtitle": "",
     "description": "",
     "label": "Mottura Point"
 }, {
     "id": "167",
     "address": "Via Milano",
     "number": "3",
     "city": "Alme",
     "district": "BG",
     "state": "ITALIA",
     "postal_code": "24011",
     "latitude": "45.741109",
     "longitude": "9.610051",
     "email": "simuni4@alice.it",
     "telephone": "035\/541412",
     "fax": "",
     "title": "L' Artigiana del Salotto s.n.c.",
     "subtitle": "",
     "description": "",
     "label": "Mottura Point"
 }, {
     "id": "168",
     "address": "Via Circonvallazione Ovest",
     "number": "40",
     "city": "Stezzano",
     "district": "BG",
     "state": "ITALIA",
     "postal_code": "24040",
     "latitude": "45.642704",
     "longitude": "9.648180",
     "email": "info@facchettibergamo.it",
     "telephone": "035\/593866",
     "fax": "",
     "title": "Facchetti di Andrea Facchetti",
     "subtitle": "",
     "description": "",
     "label": "Mottura Point"
 }, {
     "id": "169",
     "address": "Via S. Orsola",
     "number": "19\/B",
     "city": "Bergamo",
     "district": "BG",
     "state": "ITALIA",
     "postal_code": "24100",
     "latitude": "45.693877",
     "longitude": "9.665924",
     "email": "santorsola.collezionicasa@gmail.com",
     "telephone": "035\/216081",
     "fax": "",
     "title": "Casty S.r.l.",
     "subtitle": "",
     "description": "",
     "label": "Mottura Point"
 }, {
     "id": "170",
     "address": "Via Dell'Armonia",
     "number": "82",
     "city": "Romano di Lombardia",
     "district": "BG",
     "state": "ITALIA",
     "postal_code": "24058",
     "latitude": "45.517469",
     "longitude": "9.757893",
     "email": "bazarcasaromano@libero.it",
     "telephone": "0363\/910725",
     "fax": "",
     "title": "Ghilardi Giancarla ",
     "subtitle": "",
     "description": "",
     "label": "Mottura Point"
 }, {
     "id": "171",
     "address": "Via XXIV Maggio",
     "number": "20",
     "city": "Casnigo",
     "district": "BG",
     "state": "ITALIA",
     "postal_code": "24020",
     "latitude": "45.813045",
     "longitude": "9.868063",
     "email": "moroni.tappezziere@alice.it",
     "telephone": "035\/724112",
     "fax": "",
     "title": "TAPPEZZIERE MORONI S.N.C di MORONI RENZO E EUSEBIO",
     "subtitle": "",
     "description": "",
     "label": "Mottura Point"
 }, {
     "id": "172",
     "address": "Via Briolini",
     "number": "51",
     "city": "Gazzaniga",
     "district": "BG",
     "state": "ITALIA",
     "postal_code": "24025",
     "latitude": "45.796214",
     "longitude": "9.832280",
     "email": "linearte.snc@virgilio.it",
     "telephone": "035\/713524",
     "fax": "",
     "title": "Linea Arte s.n.c. di Pavoni & C.",
     "subtitle": "",
     "description": "",
     "label": "Mottura Point"
 }, {
     "id": "173",
     "address": "Via Luigi Cagnola",
     "number": "7",
     "city": "Urgnano",
     "district": "BG",
     "state": "ITALIA",
     "postal_code": "24059",
     "latitude": "45.595512",
     "longitude": "9.694280",
     "email": "ateliertende@tiscali.it",
     "telephone": "035\/891657",
     "fax": "",
     "title": "Longo Ferdinando Atelier Tende",
     "subtitle": "",
     "description": "",
     "label": "Mottura Point"
 }, {
     "id": "174",
     "address": "Via Provinciale",
     "number": "7\/A",
     "city": "Lallio",
     "district": "BG",
     "state": "ITALIA",
     "postal_code": "24040",
     "latitude": "45.664908",
     "longitude": "9.633749",
     "email": "info@tendaflexsrl.com",
     "telephone": "035\/693388",
     "fax": "",
     "title": "Tendaflex S.r.l.",
     "subtitle": "",
     "description": "",
     "label": "Mottura Point"
 }, {
     "id": "175",
     "address": "Via Sigismondi ",
     "number": "6",
     "city": "Villa D'Alme",
     "district": "BG",
     "state": "ITALIA",
     "postal_code": "24018",
     "latitude": "45.748180",
     "longitude": "9.614160",
     "email": "info@klimaxtende.it",
     "telephone": "035\/636146",
     "fax": "",
     "title": "Klimax Tende di Zambelli Matteo",
     "subtitle": "",
     "description": "",
     "label": "Mottura Point"
 }, {
     "id": "176",
     "address": "Via P. Ribolla",
     "number": "3",
     "city": "Alzano Lombardo",
     "district": "BG",
     "state": "ITALIA",
     "postal_code": "24022",
     "latitude": "45.731172",
     "longitude": "9.729003",
     "email": "info@colombotappezziere.com",
     "telephone": "035\/4123203",
     "fax": "",
     "title": "Colombo Tappezziere ",
     "subtitle": "",
     "description": "",
     "label": "Mottura Point"
 }, {
     "id": "177",
     "address": "Via Brendibusio",
     "number": "9",
     "city": "Niardo",
     "district": "BS",
     "state": "ITALIA",
     "postal_code": "25050",
     "latitude": "45.977845",
     "longitude": "10.322087",
     "email": "info@loscantinato.it",
     "telephone": "0364\/300448",
     "fax": "",
     "title": "Lo Scantinato di Bontempi Giacomo",
     "subtitle": "",
     "description": "",
     "label": "Mottura Point"
 }, {
     "id": "178",
     "address": "Via G. Di Vittorio",
     "number": "55",
     "city": "Brescia ",
     "district": "BS",
     "state": "ITALIA",
     "postal_code": "25125",
     "latitude": "45.509189",
     "longitude": "10.155959",
     "email": "info@laleonessatende.it",
     "telephone": "030\/2688621",
     "fax": "",
     "title": "Laleonessa Tende S.r.l.",
     "subtitle": "",
     "description": "",
     "label": "Mottura Point"
 }, {
     "id": "179",
     "address": "Via Traversa De Gasperi",
     "number": "9",
     "city": "Collebeato",
     "district": "BS",
     "state": "ITALIA",
     "postal_code": "25060",
     "latitude": "45.578758",
     "longitude": "10.213475",
     "email": "eclettica-brescia@libero.it",
     "telephone": "30322186",
     "fax": "",
     "title": "Eclettica di Vitali Sergio",
     "subtitle": "",
     "description": "",
     "label": "Mottura Point"
 }, {
     "id": "180",
     "address": "Via Ragazzi del 99",
     "number": "60",
     "city": "Lumezzane",
     "district": "BS",
     "state": "ITALIA",
     "postal_code": "25065",
     "latitude": "45.651853",
     "longitude": "10.274487",
     "email": "amministrazione@guarneriarredimobili.com",
     "telephone": "30826864",
     "fax": "",
     "title": "Guarneri Arredimobili S.n.c.",
     "subtitle": "",
     "description": "",
     "label": "Mottura Point"
 }, {
     "id": "181",
     "address": "Via Monte Baldo",
     "number": "54",
     "city": "Desenzano Del Garda",
     "district": "BS",
     "state": "ITALIA",
     "postal_code": "25015",
     "latitude": "45.461128",
     "longitude": "10.534520",
     "email": "info@tonolitende.com",
     "telephone": "030\/9141595",
     "fax": "",
     "title": "Tonoli Tende S.a.s.",
     "subtitle": "",
     "description": "",
     "label": "Mottura Point"
 }, {
     "id": "182",
     "address": "Via G. Pascoli",
     "number": "49",
     "city": "Artogne",
     "district": "BS",
     "state": "ITALIA",
     "postal_code": "25040",
     "latitude": "45.851419",
     "longitude": "10.151529",
     "email": "claudio.ottelli@alice.it",
     "telephone": "0364\/598753",
     "fax": "",
     "title": "Tappezzeria Camuna",
     "subtitle": "",
     "description": "",
     "label": "Mottura Point"
 }, {
     "id": "183",
     "address": "Via Cairoli",
     "number": "28",
     "city": "Brescia",
     "district": "BS",
     "state": "ITALIA",
     "postal_code": "25124",
     "latitude": "45.539769",
     "longitude": "10.210867",
     "email": "belleritende@tin.it",
     "telephone": "030\/43228",
     "fax": "",
     "title": "Belleri F. di Paolo Pergolizzi",
     "subtitle": "",
     "description": "",
     "label": "Mottura Point"
 }, {
     "id": "184",
     "address": "Via Industriale",
     "number": "54",
     "city": "Prevalle",
     "district": "BS",
     "state": "ITALIA",
     "postal_code": "25080",
     "latitude": "45.559774",
     "longitude": "10.420871",
     "email": "info@3bsolutions.com",
     "telephone": "030\/6801104",
     "fax": "",
     "title": "3B Fabbrica Tende S.r.l.",
     "subtitle": "",
     "description": "",
     "label": "Mottura Point"
 }, {
     "id": "185",
     "address": "Via Quinta",
     "number": "6\/C",
     "city": "Villaggio Sereno",
     "district": "BS",
     "state": "ITALIA",
     "postal_code": "25100",
     "latitude": "45.515711",
     "longitude": "10.194040",
     "email": "info@tappezzeriagatti.it",
     "telephone": "030\/3540173",
     "fax": "",
     "title": "Tappezzeria F.lli Gatti S.n.c.",
     "subtitle": "",
     "description": "",
     "label": "Mottura Point"
 }, {
     "id": "186",
     "address": "Via Segni",
     "number": "24",
     "city": "Concesio",
     "district": "BS",
     "state": "ITALIA",
     "postal_code": "25062",
     "latitude": "45.600733",
     "longitude": "10.213022",
     "email": "info@gilberti.org",
     "telephone": "030\/2752164",
     "fax": "",
     "title": "Tappezzeria Gilberti S.n.c.",
     "subtitle": "",
     "description": "",
     "label": "Mottura Point"
 }, {
     "id": "187",
     "address": "Via Ferriera 1",
     "number": "1",
     "city": "Ospitaletto",
     "district": "BS",
     "state": "ITALIA",
     "postal_code": "25075",
     "latitude": "45.547965",
     "longitude": "10.074763",
     "email": "lotusuno10@gmail.com",
     "telephone": "030\/6840184",
     "fax": "",
     "title": "Interno 36 di Serventi Massimiliano",
     "subtitle": "",
     "description": "",
     "label": "Mottura Point"
 }, {
     "id": "189",
     "address": "Via Aldo Moro",
     "number": "51\/A",
     "city": "Misterbianco",
     "district": "CT",
     "state": "ITALIA",
     "postal_code": "95045",
     "latitude": "37.513633",
     "longitude": "15.010794",
     "email": "infolatendasrl@feiana.it",
     "telephone": "095\/461140",
     "fax": "",
     "title": "La Tenda S.r.l.",
     "subtitle": "",
     "description": "",
     "label": "Mottura Point"
 }, {
     "id": "190",
     "address": "Via Pilata",
     "number": "34",
     "city": "Misterbianco",
     "district": "CT",
     "state": "ITALIA",
     "postal_code": "95045",
     "latitude": "37.512205",
     "longitude": "15.004748",
     "email": "info@emmebitende.it",
     "telephone": "095\/464069",
     "fax": "",
     "title": "Emmebi S.r.l.",
     "subtitle": "",
     "description": "",
     "label": "Mottura Point"
 }, {
     "id": "191",
     "address": "Viale Parco Comunale",
     "number": "14",
     "city": "Barrafranca",
     "district": "EN",
     "state": "ITALIA",
     "postal_code": "94012",
     "latitude": "37.375433",
     "longitude": "14.200865",
     "email": "nicodemosnc@email.it",
     "telephone": "934464311",
     "fax": "",
     "title": "Nicodemo S.n.c. di Costa Salvatore e Valeria",
     "subtitle": "",
     "description": "",
     "label": "Mottura Point"
 }, {
     "id": "192",
     "address": "Via Nazionale",
     "number": "209-211",
     "city": "Mer",
     "district": "ME",
     "state": "ITALIA",
     "postal_code": "98040",
     "latitude": "38.166477",
     "longitude": "15.249942",
     "email": "tendarredi@libero.it",
     "telephone": "090\/9763900",
     "fax": "",
     "title": "Tendarredi S.r.l.",
     "subtitle": "",
     "description": "",
     "label": "Mottura Point"
 }, {
     "id": "193",
     "address": "Via Lucio Piccolo",
     "number": "58",
     "city": "Capo D'Orlando",
     "district": "ME",
     "state": "ITALIA",
     "postal_code": "98071",
     "latitude": "38.156416",
     "longitude": "14.742679",
     "email": "coantappezzeria@libero.it",
     "telephone": "0941\/911089",
     "fax": "",
     "title": "Co.an Tappezzeria S.n.c.",
     "subtitle": "",
     "description": "",
     "label": "Mottura Point"
 }, {
     "id": "194",
     "address": "Via Nazionale",
     "number": "259",
     "city": "Spadafora",
     "district": "ME",
     "state": "ITALIA",
     "postal_code": "98048",
     "latitude": "38.212563",
     "longitude": "15.349895",
     "email": "toptende1@hotmail.it",
     "telephone": "909942984",
     "fax": "",
     "title": "Top Tende di Cardullo Maria",
     "subtitle": "",
     "description": "",
     "label": "Mottura Point"
 }, {
     "id": "195",
     "address": "Via Dei Mille Isol. 88",
     "number": "265",
     "city": "Messina",
     "district": "ME",
     "state": "ITALIA",
     "postal_code": "98123",
     "latitude": "38.193814",
     "longitude": "15.554015",
     "email": "tendaggibernava@gmail.com",
     "telephone": "090\/2938803",
     "fax": "",
     "title": "Bernava Sebastiano ",
     "subtitle": "",
     "description": "",
     "label": "Mottura Point"
 }, {
     "id": "196",
     "address": "Viale Luigi Cadorna",
     "number": "03-mag",
     "city": "Siracusa",
     "district": "SR",
     "state": "ITALIA",
     "postal_code": "96100",
     "latitude": "37.075474",
     "longitude": "15.286586",
     "email": "bottarofrancesco64@gmail.com",
     "telephone": "0931\/462155",
     "fax": "",
     "title": "Bottaro Francesco",
     "subtitle": "",
     "description": "",
     "label": "Mottura Point"
 }, {
     "id": "197",
     "address": "Via Sorda Sampieri",
     "number": "126 G",
     "city": "Modica",
     "district": "RG",
     "state": "ITALIA",
     "postal_code": "97015",
     "latitude": "36.827511",
     "longitude": "14.777060",
     "email": "letendemodica@gmail.com",
     "telephone": "932905497",
     "fax": "",
     "title": "Le Tende In di Ruta Piero & C. S.n.c.",
     "subtitle": "",
     "description": "",
     "label": "Mottura Point"
 }, {
     "id": "198",
     "address": "VIALE DELLE AMERICHE",
     "number": "83",
     "city": "Ragusa",
     "district": "RG",
     "state": "ITALIA",
     "postal_code": "97100",
     "latitude": "36.928837",
     "longitude": "14.696612",
     "email": "info@divitatende.it",
     "telephone": "0932\/247135",
     "fax": "",
     "title": "Di Vita S.n.c.",
     "subtitle": "",
     "description": "",
     "label": "Mottura Point"
 }, {
     "id": "199",
     "address": "Viale Europa",
     "number": "413",
     "city": "Ragusa ",
     "district": "RG",
     "state": "ITALIA",
     "postal_code": "97100",
     "latitude": "36.926911",
     "longitude": "14.707135",
     "email": "ottavianoerovettosnc@alice.it",
     "telephone": "932.256.030",
     "fax": "",
     "title": "Tappezzeria di Ottaviano & Rovetto S.n.c.",
     "subtitle": "",
     "description": "",
     "label": "Mottura Point"
 }, {
     "id": "200",
     "address": "Via Einstein",
     "number": "25\/A",
     "city": "Comiso",
     "district": "RG",
     "state": "ITALIA",
     "postal_code": "97013",
     "latitude": "36.952562",
     "longitude": "14.604073",
     "email": "egodibrafanunzio@hotmail.it",
     "telephone": "932.967.906",
     "fax": "",
     "title": "Ego di Brafa Nunzio",
     "subtitle": "",
     "description": "",
     "label": "Mottura Point"
 }, {
     "id": "201",
     "address": "Via Siracusa",
     "number": "3",
     "city": "Ispica",
     "district": "RG",
     "state": "ITALIA",
     "postal_code": "97014",
     "latitude": "36.786726",
     "longitude": "14.902309",
     "email": "info@mariagennaro.it",
     "telephone": "0932\/959040",
     "fax": "",
     "title": "Gennaro Maria ",
     "subtitle": "",
     "description": "",
     "label": "Mottura Point"
 }, {
     "id": "202",
     "address": "Via Virgilio",
     "number": "13",
     "city": "Ragusa",
     "district": "RG",
     "state": "ITALIA",
     "postal_code": "97100",
     "latitude": "36.945343",
     "longitude": "14.602596",
     "email": "agora.rg@fastwebnet.it",
     "telephone": "0932\/682290",
     "fax": "",
     "title": "Agor\u00e0",
     "subtitle": "",
     "description": "",
     "label": "Mottura Point"
 }, {
     "id": "203",
     "address": "Via Frohlih",
     "number": "4",
     "city": "Malles Venosta",
     "district": "BZ",
     "state": "ITALIA",
     "postal_code": "39024",
     "latitude": "46.689340",
     "longitude": "10.542225",
     "email": "info@hotel-tyrol.it",
     "telephone": "0473\/835383",
     "fax": "",
     "title": "Schenk S.a.s.",
     "subtitle": "",
     "description": "",
     "label": "Mottura Point"
 }, {
     "id": "204",
     "address": "Via Julius Durst",
     "number": "72\/B",
     "city": "Bressanone",
     "district": "BZ",
     "state": "ITALIA",
     "postal_code": "39042",
     "latitude": "46.690030",
     "longitude": "11.642822",
     "email": "evelyn@fischnaller.it",
     "telephone": "0472\/834062",
     "fax": "",
     "title": "Fischnaller B. & Partner S.r.l.",
     "subtitle": "",
     "description": "",
     "label": "Mottura Point"
 }, {
     "id": "206",
     "address": "Via Del Commercio",
     "number": "64",
     "city": "Trento",
     "district": "TR",
     "state": "ITALIA",
     "postal_code": "38100",
     "latitude": "46.092195",
     "longitude": "11.104041",
     "email": "leasncgc@virgilio.it",
     "telephone": "461420904",
     "fax": "",
     "title": "L. & A. S.N.C",
     "subtitle": "",
     "description": "",
     "label": "Mottura Point"
 }, {
     "id": "207",
     "address": "Via De Gasperi",
     "number": "98",
     "city": "Trento",
     "district": "TR",
     "state": "ITALIA",
     "postal_code": "38100",
     "latitude": "46.049730",
     "longitude": "11.124750",
     "email": "marcobraus@virgilio.it",
     "telephone": "0461\/922221",
     "fax": "",
     "title": "Braus Tendaggi S.n.c.",
     "subtitle": "",
     "description": "",
     "label": "Mottura Point"
 }, {
     "id": "209",
     "address": "Piazza Parodi",
     "number": "6",
     "city": "CONCAMARISE",
     "district": "VR",
     "state": "ITALIA",
     "postal_code": "37050",
     "latitude": "45.209914",
     "longitude": "11.137447",
     "email": "tositendaggi@me.com",
     "telephone": "3335979390",
     "fax": "",
     "title": "Tosi Filippo",
     "subtitle": "",
     "description": "",
     "label": "Mottura Point"
 }, {
     "id": "210",
     "address": "Via Portogallo",
     "number": "1\/B",
     "city": "Villafranca di Verona",
     "district": "VR",
     "state": "ITALIA",
     "postal_code": "37069",
     "latitude": "45.366817",
     "longitude": "10.858083",
     "email": "info@modatenda.it",
     "telephone": "045\/6305754",
     "fax": "",
     "title": "Moda Tenda S.r.l.",
     "subtitle": "",
     "description": "",
     "label": "Mottura Point"
 }, {
     "id": "211",
     "address": "Via Renato Simoni",
     "number": "9",
     "city": "San Giovanni Lupatoto",
     "district": "VR",
     "state": "ITALIA",
     "postal_code": "37057",
     "latitude": "45.375049",
     "longitude": "11.055222",
     "email": "tappezzeria.piubel@libero.it",
     "telephone": "045\/8750098",
     "fax": "",
     "title": "Tappezzeria Piubel Paolo",
     "subtitle": "",
     "description": "",
     "label": "Mottura Point"
 }, {
     "id": "212",
     "address": "Via Salice",
     "number": "5",
     "city": "zona Belfiore ",
     "district": "MN",
     "state": "ITALIA",
     "postal_code": "46100",
     "latitude": "45.154730",
     "longitude": "10.763180",
     "email": "fatture@debiasitendaggi.com",
     "telephone": "0376\/381107",
     "fax": "",
     "title": "De Biasi S.r.l.",
     "subtitle": "",
     "description": "",
     "label": "Mottura Point"
 }, {
     "id": "213",
     "address": "VIA B. BUOZZI, 8",
     "number": "8",
     "city": "MANTOVA",
     "district": "MN",
     "state": "ITALIA",
     "postal_code": "46100",
     "latitude": "45.157248",
     "longitude": "10.793102",
     "email": "info@letendebrighenti.it",
     "telephone": "376.369.558",
     "fax": "",
     "title": "Le Tende di Brighenti Silvano",
     "subtitle": "",
     "description": "",
     "label": "Mottura Point"
 }, {
     "id": "214",
     "address": "Via Moglianese",
     "number": "166",
     "city": "Gardigiano di Sc.",
     "district": "VE",
     "state": "ITALIA",
     "postal_code": "30030",
     "latitude": "45.563505",
     "longitude": "12.193199",
     "email": "miattozanocco@libero.it",
     "telephone": "041\/449520  ",
     "fax": "",
     "title": "Miatto Zanocco",
     "subtitle": "",
     "description": "",
     "label": "Mottura Point"
 }, {
     "id": "215",
     "address": "Via I Maggio",
     "number": "26",
     "city": "Olmi di San Biagio di Callalta",
     "district": "TV",
     "state": "ITALIA",
     "postal_code": "31048",
     "latitude": "45.674360",
     "longitude": "12.331840",
     "email": "info@zanettitendaggi.it",
     "telephone": "0422\/899191",
     "fax": "",
     "title": "Zanetti Tendaggi di Zanetti Francesca",
     "subtitle": "",
     "description": "",
     "label": "Mottura Point"
 }, {
     "id": "216",
     "address": "Via Consumina",
     "number": "21\/23",
     "city": "Valdobbiadene",
     "district": "TV",
     "state": "ITALIA",
     "postal_code": "31030",
     "latitude": "45.879065",
     "longitude": "12.026068",
     "email": "midatendaggi@libero.it",
     "telephone": "0423\/982134",
     "fax": "",
     "title": "Mida Tendaggi S.n.c.",
     "subtitle": "",
     "description": "",
     "label": "Mottura Point"
 }, {
     "id": "218",
     "address": "Via Dell'Artigianato",
     "number": "11",
     "city": "Ponte di Piave",
     "district": "TV",
     "state": "ITALIA",
     "postal_code": "31047",
     "latitude": "45.731497",
     "longitude": "12.471695",
     "email": "atelier@nardinletende.it",
     "telephone": "0422\/713575",
     "fax": "",
     "title": "Nardin Le Tende S.r.l.",
     "subtitle": "",
     "description": "",
     "label": "Mottura Point"
 }, {
     "id": "219",
     "address": "VIA F.BARACCA",
     "number": "39",
     "city": "CIMADOLMO",
     "district": "TV",
     "state": "ITALIA",
     "postal_code": "31010",
     "latitude": "45.784432",
     "longitude": "12.363744",
     "email": "giancarlomarchi1@virgilio.it",
     "telephone": "0422\/743016",
     "fax": "",
     "title": "La Bottega del Tendaggio S.n.c. di Marchi G. & C.",
     "subtitle": "",
     "description": "",
     "label": "Mottura Point"
 }, {
     "id": "220",
     "address": "Via Abruzzi",
     "number": "36\/38",
     "city": "Thiene",
     "district": "VI",
     "state": "ITALIA",
     "postal_code": "36016",
     "latitude": "45.703608",
     "longitude": "11.464970",
     "email": "tendapiuthiene@gmail.com",
     "telephone": "0445\/366950",
     "fax": "",
     "title": "Tenda Pi",
     "subtitle": "",
     "description": "",
     "label": "Mottura Point"
 }, {
     "id": "222",
     "address": "Via Dell'Agricoltura",
     "number": "2\/A",
     "city": "Thiene",
     "district": "VI",
     "state": "ITALIA",
     "postal_code": "36016",
     "latitude": "45.686069",
     "longitude": "11.474520",
     "email": "filiprofili@gmail.com",
     "telephone": "0445\/365598",
     "fax": "",
     "title": "Fili & Profili S.n.c. di Sartori Giorgio & C.",
     "subtitle": "",
     "description": "",
     "label": "Mottura Point"
 }, {
     "id": "223",
     "address": "Via Pieve",
     "number": "75",
     "city": "Chiampo",
     "district": "VI",
     "state": "ITALIA",
     "postal_code": "36072",
     "latitude": "45.541263",
     "longitude": "11.285550",
     "email": "info@bottegartigiana.eu",
     "telephone": "0444\/623507",
     "fax": "",
     "title": "Bottega Artigiana di Lovato Sergio & C. S.n.c.",
     "subtitle": "",
     "description": "",
     "label": "Mottura Point"
 }, {
     "id": "224",
     "address": "Strada Marosticana",
     "number": "286",
     "city": "Vicenza",
     "district": "VI",
     "state": "ITALIA",
     "postal_code": "36016",
     "latitude": "45.587560",
     "longitude": "11.556511",
     "email": "info@rideaux.it",
     "telephone": "0444\/945828",
     "fax": "",
     "title": "Rideaux S.n.c. di Mollis Ivo & C.",
     "subtitle": "",
     "description": "",
     "label": "Mottura Point"
 }, {
     "id": "225",
     "address": "Viale Del Lavoro",
     "number": "17\/A",
     "city": "Rovigo",
     "district": "VI",
     "state": "ITALIA",
     "postal_code": "45100",
     "latitude": "45.053896",
     "longitude": "11.781851",
     "email": "puntotenda@puntotenda.com",
     "telephone": "0425\/474391",
     "fax": "",
     "title": "Punto Tenda di Roncon Luciano & C. S.n.c.",
     "subtitle": "",
     "description": "",
     "label": "Mottura Point"
 }, {
     "id": "226",
     "address": "Via G. Verga",
     "number": "5",
     "city": "Rovigo",
     "district": "VI",
     "state": "ITALIA",
     "postal_code": "45100",
     "latitude": "45.078217",
     "longitude": "11.804059",
     "email": "info@tappezzeriamarabese.it",
     "telephone": "0425\/31908",
     "fax": "",
     "title": "Tappezzeria Marabese di Marabese Laura",
     "subtitle": "",
     "description": "",
     "label": "Mottura Point"
 }, {
     "id": "227",
     "address": "Viale del Commercio",
     "number": "42",
     "city": "Ca' Onorai, Cittadella",
     "district": "PD",
     "state": "Italia",
     "postal_code": "35013",
     "latitude": "45.661139",
     "longitude": "11.801152",
     "email": "linea.tendaggi@libero.it",
     "telephone": "049\/5972689",
     "fax": "",
     "title": "Linea Tendaggi di Simioni Gianni",
     "subtitle": "",
     "description": "",
     "label": "Mottura Point"
 }, {
     "id": "228",
     "address": "Piazza Martiri",
     "number": "36",
     "city": "Santa Giustina in Colle",
     "district": "PD",
     "state": "ITALIA",
     "postal_code": "35010",
     "latitude": "45.563246",
     "longitude": "11.905977",
     "email": "casaarredo.fassina@gmail.com",
     "telephone": "049\/9300470",
     "fax": "",
     "title": "Casa Arredo di Fassina Silvano & C. S.a.s.",
     "subtitle": "",
     "description": "",
     "label": "Mottura Point"
 }, {
     "id": "229",
     "address": "Via Gattamelata",
     "number": "4\/B",
     "city": "Padova",
     "district": "PD",
     "state": "ITALIA",
     "postal_code": "35128",
     "latitude": "45.399589",
     "longitude": "11.887531",
     "email": "info@luise-parati.it",
     "telephone": "049\/751666",
     "fax": "",
     "title": "Luise Parati S.r.l.",
     "subtitle": "",
     "description": "",
     "label": "Mottura Point"
 }, {
     "id": "230",
     "address": "Via Padova",
     "number": "84",
     "city": "Selvazzano Dentro",
     "district": "PD",
     "state": "ITALIA",
     "postal_code": "35030",
     "latitude": "45.391552",
     "longitude": "11.810423",
     "email": "info@arredotenda.com",
     "telephone": "049\/8685422",
     "fax": "",
     "title": "Carturan Arredotenda di Carturan Graziano",
     "subtitle": "",
     "description": "",
     "label": "Mottura Point"
 }, {
     "id": "231",
     "address": "Via G. Barbarigo",
     "number": "37",
     "city": "Tribano (PD)",
     "district": "PD",
     "state": "ITALIA",
     "postal_code": "35020",
     "latitude": "45.213351",
     "longitude": "11.833573",
     "email": "info@studiotenda.com",
     "telephone": "049\/5342277",
     "fax": "",
     "title": "G.F. S.n.c. di Giacometti Fausto & C.",
     "subtitle": "",
     "description": "",
     "label": "Mottura Point"
 }, {
     "id": "232",
     "address": "Via Caffi",
     "number": "70",
     "city": "Belluno ",
     "district": "BL",
     "state": "ITALIA",
     "postal_code": "32100",
     "latitude": "46.140775",
     "longitude": "12.213447",
     "email": "dpd1971@alice.it",
     "telephone": "0437\/948538",
     "fax": "",
     "title": "Della Putta Antonio & C. S.n.c.",
     "subtitle": "",
     "description": "",
     "label": "Mottura Point"
 }, {
     "id": "234",
     "address": "Via Toscana",
     "number": "8 B\/C\/D",
     "city": "Bologna",
     "district": "BO",
     "state": "ITALIA",
     "postal_code": "40141",
     "latitude": "44.471508",
     "longitude": "11.370588",
     "email": "lucastefanitendaggi@libero.it",
     "telephone": "051\/474893",
     "fax": "",
     "title": "Stefani Luca",
     "subtitle": "",
     "description": "",
     "label": "Mottura Point"
 }, {
     "id": "235",
     "address": "Via A. Costa",
     "number": "18-feb",
     "city": "Casalecchio Di Reno",
     "district": "BO",
     "state": "ITALIA",
     "postal_code": "40033",
     "latitude": "44.478247",
     "longitude": "11.277380",
     "email": "matistende@alice.it",
     "telephone": "051\/363972",
     "fax": "",
     "title": "Matis di Claudio Solimando ",
     "subtitle": "",
     "description": "",
     "label": "Mottura Point"
 }, {
     "id": "241",
     "address": "Via Leonardo da Vinci",
     "number": "74",
     "city": "Nonantola",
     "district": "MO",
     "state": "ITALIA",
     "postal_code": "41015",
     "latitude": "44.676865",
     "longitude": "11.022092",
     "email": "ivan@tendetappezzeria.it",
     "telephone": "59.549.545",
     "fax": "",
     "title": "Tende e Tappezzeria di Pedrini Ivan",
     "subtitle": "",
     "description": "",
     "label": "Mottura Point"
 }, {
     "id": "243",
     "address": "Vicolo Greco",
     "number": "5",
     "city": "Mirandola",
     "district": "MO",
     "state": "ITALIA",
     "postal_code": "41037",
     "latitude": "44.884958",
     "longitude": "11.067239",
     "email": "tappezzeriarigieri@gmail.com",
     "telephone": "0535\/22676",
     "fax": "",
     "title": "Rigieri Giuseppe Tappezziere ",
     "subtitle": "",
     "description": "",
     "label": "Mottura Point"
 }, {
     "id": "249",
     "address": "Via Rimembranze",
     "number": "6",
     "city": "Rimini",
     "district": "RN",
     "state": "ITALIA",
     "postal_code": "47900",
     "latitude": "44.042219",
     "longitude": "12.590913",
     "email": "flaminiasrl@alice.it",
     "telephone": "0541\/380110",
     "fax": "",
     "title": "Flaminia di Rossi & C. S.r.l.",
     "subtitle": "",
     "description": "",
     "label": "Mottura Point"
 }, {
     "id": "250",
     "address": "Corso Matteotti",
     "number": "60",
     "city": "Faenza",
     "district": "RA",
     "state": "ITALIA",
     "postal_code": "48018",
     "latitude": "44.282880",
     "longitude": "11.878330",
     "email": "info@mgmatelier.com",
     "telephone": "54626559",
     "fax": "",
     "title": "Mengozzi & Mazzoni Atelier MGM S.r.l.",
     "subtitle": "",
     "description": "",
     "label": "Mottura Point"
 }, {
     "id": "254",
     "address": "Circonvallazione San Gaetanino",
     "number": "104",
     "city": "Ravenna",
     "district": "RA",
     "state": "ITALIA",
     "postal_code": "48100",
     "latitude": "44.423311",
     "longitude": "12.198647",
     "email": "info@casadellatenda.com",
     "telephone": "0544\/454119",
     "fax": "",
     "title": "Casa Della Tenda di Focacci Bruna ",
     "subtitle": "",
     "description": "",
     "label": "Mottura Point"
 }, {
     "id": "256",
     "address": "Via Frejus",
     "number": "88",
     "city": "Torino",
     "district": "TO",
     "state": "ITALIA",
     "postal_code": "10139",
     "latitude": "45.070502",
     "longitude": "7.644262",
     "email": "info@tend-art.com",
     "telephone": "011\/3854060   ",
     "fax": "",
     "title": "Tend Art s.a.s. di Matteis Andrea & C.",
     "subtitle": "",
     "description": "",
     "label": "Mottura Point"
 }, {
     "id": "257",
     "address": "Via Della Repubblica",
     "number": "282",
     "city": "Fornaci di Barga",
     "district": "LU",
     "state": "ITALIA",
     "postal_code": "55051",
     "latitude": "44.049067",
     "longitude": "10.469952",
     "email": "angolodellatendailaria@yahoo.it",
     "telephone": "0583\/709731",
     "fax": "",
     "title": "Angolo Della Tenda snc",
     "subtitle": "",
     "description": "",
     "label": "Mottura Point"
 }, {
     "id": "260",
     "address": "Via Garibaldi",
     "number": "18",
     "city": "San Giovanni Val d'Arno",
     "district": "AR",
     "state": "ITALIA",
     "postal_code": "52027",
     "latitude": "43.565706",
     "longitude": "11.530278",
     "email": "tappezzerialafenice@hotmail.it",
     "telephone": "055\/9121945",
     "fax": "",
     "title": "Tappezzeria La Fenice srl",
     "subtitle": "",
     "description": "",
     "label": "Mottura Point"
 }, {
     "id": "261",
     "address": "Strada Massetana Romana",
     "number": "58",
     "city": "Siena",
     "district": "SI",
     "state": "ITALIA",
     "postal_code": "53100",
     "latitude": "43.302906",
     "longitude": "11.323095",
     "email": "federicobartoli73@gmail.com",
     "telephone": "0577\/271866",
     "fax": "",
     "title": "Il Tappezziere di Via Massetana di Bartoli & C.",
     "subtitle": "",
     "description": "",
     "label": "Mottura Point"
 }, {
     "id": "262",
     "address": "Via Zani",
     "number": "13",
     "city": "Siena",
     "district": "SI",
     "state": "ITALIA",
     "postal_code": "53100",
     "latitude": "43.319110",
     "longitude": "11.351150",
     "email": "info@inglesi.biz",
     "telephone": "577287574",
     "fax": "",
     "title": "Inglesi Infissi e Tende sas",
     "subtitle": "",
     "description": "",
     "label": "Mottura Point"
 }, {
     "id": "263",
     "address": "Via Selva Piana",
     "number": "88",
     "city": "Casoli",
     "district": "CH",
     "state": "ITALIA",
     "postal_code": "66043",
     "latitude": "42.123452",
     "longitude": "14.302802",
     "email": "raggioannamaria@virgilio.it",
     "telephone": "0872\/982006",
     "fax": "",
     "title": "Annamaria Raggio",
     "subtitle": "",
     "description": "",
     "label": "Mottura Point"
 }, {
     "id": "264",
     "address": "Via Dei Castani zona Giardino",
     "number": "",
     "city": "Martinsicuro",
     "district": "TE",
     "state": "ITALIA",
     "postal_code": "64014",
     "latitude": "42.886962",
     "longitude": "13.913194",
     "email": "domenico@texsaca.it",
     "telephone": "0861\/761581",
     "fax": "",
     "title": "Texsaca srl",
     "subtitle": "",
     "description": "",
     "label": "Mottura Point"
 }, {
     "id": "265",
     "address": "Via per Seregno",
     "number": "38",
     "city": "Desio",
     "district": "MB",
     "state": "ITALIA",
     "postal_code": "20832",
     "latitude": "45.623111",
     "longitude": "9.231861",
     "email": "info@monguzzitende.it",
     "telephone": "0362\/303299",
     "fax": " ",
     "title": "Monguzzi Tende",
     "subtitle": "",
     "description": "",
     "label": "Mottura Point"
 }, {
     "id": "266",
     "address": "Via G. Cantore",
     "number": "5",
     "city": "Saronno",
     "district": "VA",
     "state": "ITALIA",
     "postal_code": "21047",
     "latitude": "45.625311",
     "longitude": "9.031322",
     "email": "gbrughe@tin.it",
     "telephone": "02\/9603375",
     "fax": "",
     "title": "G. Brughera di Brughera G. C.  & C. S.A.S.",
     "subtitle": "",
     "description": "",
     "label": "Mottura Point"
 }, {
     "id": "267",
     "address": "Via Palazzo",
     "number": "30",
     "city": "Mestre",
     "district": "VE",
     "state": "ITALIA",
     "postal_code": "30174",
     "latitude": "45.495458",
     "longitude": "12.243354",
     "email": "dittatessar@libero.it",
     "telephone": "041\/2432617",
     "fax": "",
     "title": "Tessar srl",
     "subtitle": "",
     "description": "",
     "label": "Mottura Point"
 }, {
     "id": "268",
     "address": "Via Calabria",
     "number": "76",
     "city": "Mestre",
     "district": "VE",
     "state": "ITALIA",
     "postal_code": "30174",
     "latitude": "45.488733",
     "longitude": "12.210346",
     "email": "info@tappezzerialongo.com",
     "telephone": "041\/916916",
     "fax": "",
     "title": "Tappezzeria Longo",
     "subtitle": "",
     "description": "",
     "label": "Mottura Point"
 }, {
     "id": "269",
     "address": "Via B. Sestini",
     "number": "213",
     "city": "Pistoia",
     "district": "PT",
     "state": "ITALIA",
     "postal_code": "51100",
     "latitude": "43.941302",
     "longitude": "10.950416",
     "email": "tappezzeria.andreini@virgilio.it",
     "telephone": "0573\/452388",
     "fax": "",
     "title": "Tappezzeria Andreini Antonio snc",
     "subtitle": "",
     "description": "",
     "label": "Mottura Point"
 }, {
     "id": "270",
     "address": "Via Adda",
     "number": "42",
     "city": "Sant'Albino di Monza",
     "district": "MB",
     "state": "ITALIA",
     "postal_code": "20052",
     "latitude": "45.584500",
     "longitude": "9.274449",
     "email": "info@mauritende.com",
     "telephone": "392.840.786",
     "fax": "",
     "title": "Mauri Tende",
     "subtitle": "",
     "description": "",
     "label": "Mottura Point"
 }, {
     "id": "273",
     "address": "Strada Cassia Sud",
     "number": "37",
     "city": "Viterbo",
     "district": "VT",
     "state": "ITALIA",
     "postal_code": "1100",
     "latitude": "42.380793",
     "longitude": "12.074475",
     "email": "alessandro.gentile@aruba.it",
     "telephone": "0761\/341609",
     "fax": "",
     "title": "Tendidea snc di Gentile G. & C.",
     "subtitle": "",
     "description": "",
     "label": "Mottura Point"
 }, {
     "id": "274",
     "address": "Via Conciliazione",
     "number": "55\/B",
     "city": "Piacenza",
     "district": "PC",
     "state": "ITALIA",
     "postal_code": "29100",
     "latitude": "45.042096",
     "longitude": "9.706221",
     "email": "castellanatendaggi@gmail.com",
     "telephone": "0523\/616634",
     "fax": "",
     "title": "Castellana Diego",
     "subtitle": "",
     "description": "",
     "label": "Mottura Point"
 }, {
     "id": "275",
     "address": "Via Marrucina",
     "number": "155",
     "city": "Guardiagrele",
     "district": "CH",
     "state": "ITALIA",
     "postal_code": "66016",
     "latitude": "42.198688",
     "longitude": "14.221141",
     "email": "info@arredo-casa.com",
     "telephone": "0871\/84661",
     "fax": "",
     "title": "Arredo Casa s.n.c. di Alimonti Luigi & C.",
     "subtitle": "",
     "description": "",
     "label": "Mottura Point"
 }, {
     "id": "277",
     "address": "Via Roma",
     "number": "19\/A",
     "city": "Castelnovo Nei Monti",
     "district": "RE",
     "state": "ITALIA",
     "postal_code": "42035",
     "latitude": "44.435170",
     "longitude": "10.405727",
     "email": "info@arredodarte.it",
     "telephone": "0522\/812106",
     "fax": "",
     "title": "Arredo D'Arte di Colombo & C.",
     "subtitle": "",
     "description": "",
     "label": "Mottura Point"
 }, {
     "id": "279",
     "address": "Via Centrale",
     "number": "1",
     "city": "Adegliacco",
     "district": "UD",
     "state": "ITALIA",
     "postal_code": "33010",
     "latitude": "46.114960",
     "longitude": "13.234950",
     "email": "salotenda@libero.it",
     "telephone": "0432\/297184",
     "fax": "",
     "title": "Salotenda di Mauro Stafano",
     "subtitle": "",
     "description": "",
     "label": "Mottura Point"
 }, {
     "id": "280",
     "address": "Galleria Vittor Pisani",
     "number": "2",
     "city": "Andria",
     "district": "BA",
     "state": "ITALIA",
     "postal_code": "70031",
     "latitude": "41.225746",
     "longitude": "16.298978",
     "email": "boutiquedeltendaggio@tiscali.it",
     "telephone": "0883\/543611 - cell. 3348510981",
     "fax": " ",
     "title": "Boutique Del Tendaggio snc",
     "subtitle": "",
     "description": "",
     "label": "Mottura Point"
 }, {
     "id": "281",
     "address": "Corso Milano",
     "number": "39",
     "city": "Vigevano",
     "district": "PV",
     "state": "ITALIA",
     "postal_code": "27029",
     "latitude": "45.322084",
     "longitude": "8.869437",
     "email": "af_tendaggi@alice.it",
     "telephone": "0381\/70481",
     "fax": " ",
     "title": "A. F. S.N.C di Aguzzi P. e Formaggio A.",
     "subtitle": "",
     "description": "",
     "label": "Mottura Point"
 }, {
     "id": "282",
     "address": "VIA DEI PEECCHI, 70 LOC. VARIGNANO",
     "number": "70",
     "city": "Loc.Varignano - Viareggio",
     "district": "LU",
     "state": "ITALIA",
     "postal_code": "55049",
     "latitude": "43.865727",
     "longitude": "10.251310",
     "email": "ottomanasnc@alice.it",
     "telephone": "340\/2352342",
     "fax": " ",
     "title": "Tappezzeria Ottomana snc",
     "subtitle": "",
     "description": "",
     "label": "Mottura Point"
 }, {
     "id": "283",
     "address": "Via Mazzini",
     "number": "11",
     "city": "Carrara",
     "district": "MS",
     "state": "ITALIA",
     "postal_code": "54033",
     "latitude": "44.076535",
     "longitude": "10.098912",
     "email": "tessutigianni@gmail.com",
     "telephone": "0585\/70895",
     "fax": "",
     "title": "Tessuti Gianni snc",
     "subtitle": "",
     "description": "",
     "label": "Mottura Point"
 }, {
     "id": "284",
     "address": "Piazza G. Rossa",
     "number": "9",
     "city": "Ponte a Egola San Miniato",
     "district": "PI",
     "state": "ITALIA",
     "postal_code": "56024",
     "latitude": "43.685700",
     "longitude": "10.798361",
     "email": "info@mixagesnc.it",
     "telephone": "571498441",
     "fax": "",
     "title": "Mixage snc",
     "subtitle": "",
     "description": "",
     "label": "Mottura Point"
 }, {
     "id": "285",
     "address": "Via Autonomia",
     "number": "125",
     "city": "Caltagirone",
     "district": "CT",
     "state": "ITALIA",
     "postal_code": "95041",
     "latitude": "37.221970",
     "longitude": "14.523632",
     "email": "atelier.langolomagico@gmail.com",
     "telephone": "0933\/27248",
     "fax": "",
     "title": "Interni 125 di Lamorella Anna Patrizia",
     "subtitle": "",
     "description": "",
     "label": "Mottura Point"
 }, {
     "id": "286",
     "address": "Zona Produttiva Vurza",
     "number": "22",
     "city": "Pineta di Laives",
     "district": "BZ",
     "state": "ITALIA",
     "postal_code": "39050",
     "latitude": "46.444825",
     "longitude": "11.338599",
     "email": "info@arredoedekor.it",
     "telephone": "0471\/951164",
     "fax": "",
     "title": "Nuova Linea di Endrizzi Franca",
     "subtitle": "",
     "description": "",
     "label": "Mottura Point"
 }, {
     "id": "287",
     "address": "Via Chieri",
     "number": "62",
     "city": "Pino Torinese",
     "district": "TO",
     "state": "ITALIA",
     "postal_code": "10025",
     "latitude": "45.032743",
     "longitude": "7.790487",
     "email": "info@riflessitendaggi.it",
     "telephone": "118112052",
     "fax": "",
     "title": "Riflessi Tende e Tessuti per arredare di Spalluto Anna",
     "subtitle": "",
     "description": "",
     "label": "Mottura Point"
 }, {
     "id": "288",
     "address": "CORSO SEMPIONE",
     "number": "102",
     "city": "MILANO",
     "district": "MI",
     "state": "ITALIA",
     "postal_code": "20154",
     "latitude": "45.487098",
     "longitude": "9.157772",
     "email": "jt@jollytenda.com",
     "telephone": "02\/34934266",
     "fax": "0234934282",
     "title": "LA TENDA DEL VERBANO S.R.L.",
     "subtitle": "",
     "description": "",
     "label": "Mottura Point"
 }, {
     "id": "289",
     "address": "Via Martina Franca",
     "number": "80",
     "city": "Crispiano",
     "district": "TA",
     "state": "Italia",
     "postal_code": "74012",
     "latitude": "40.605583",
     "longitude": "17.236889",
     "email": "pontrelli.pierluigi@gmail.com",
     "telephone": "099616515",
     "fax": "099616515",
     "title": "PONTRELLI PIERLUIGI",
     "subtitle": "",
     "description": "",
     "label": "Mottura Point"
 }, {
     "id": "290",
     "address": "Piazza dei Re di Roma",
     "number": "63",
     "city": "Roma",
     "district": "RM",
     "state": "Italia",
     "postal_code": "00183",
     "latitude": "41.882245",
     "longitude": "12.514782",
     "email": "info@ralli.it",
     "telephone": "067027345",
     "fax": "067027345",
     "title": "RALLI ARREDAMENTI S.R.L.",
     "subtitle": "",
     "description": "",
     "label": "Mottura Point"
 }, {
     "id": "291",
     "address": "Piazza Enrico Martini",
     "number": "7",
     "city": "Roma",
     "district": "RM",
     "state": "Italia",
     "postal_code": "00127",
     "latitude": "41.797483",
     "longitude": "12.430434",
     "email": "tende-dintorni@tende-dintorni.it",
     "telephone": "0683766347",
     "fax": "",
     "title": "TENDE & DINTORNI S.A.S di PALOMBI VALENTINA",
     "subtitle": "",
     "description": "",
     "label": "Mottura Point"
 }, {
     "id": "292",
     "address": "Via Cessaniti",
     "number": "29",
     "city": "Roma",
     "district": "RM",
     "state": "Italia",
     "postal_code": "00132",
     "latitude": "41.873675",
     "longitude": "12.679919",
     "email": "mefisnc@tiscali.it",
     "telephone": "0620765077",
     "fax": "0650918055",
     "title": "ME.FI. di MELONI E C. S.N.C.",
     "subtitle": "",
     "description": "",
     "label": "Mottura Point"
 }, {
     "id": "293",
     "address": "Via Stefano della Bella",
     "number": "3",
     "city": "Roma",
     "district": "RM",
     "state": "Italia",
     "postal_code": "00133",
     "latitude": "41.857162",
     "longitude": "12.599748",
     "email": "as.clientivernarelli@gmail.com",
     "telephone": "062023171",
     "fax": "062025224",
     "title": "VERNARELLI S.R.L.",
     "subtitle": "",
     "description": "",
     "label": "Mottura Point"
 }, {
     "id": "294",
     "address": "Via del Quarticciolo Trionfale",
     "number": "5",
     "city": "Roma",
     "district": "RM",
     "state": "Italia",
     "postal_code": "00135",
     "latitude": "41.954430",
     "longitude": "12.412220",
     "email": "massimilianob@giuliorossigroup.it",
     "telephone": "0661599049",
     "fax": "0661597501",
     "title": "AIKOS ARREDAMENTI S.r.l.",
     "subtitle": "",
     "description": "",
     "label": "Mottura Point"
 }, {
     "id": "295",
     "address": "Via T. Edison",
     "number": "",
     "city": "Monterotondo",
     "district": "RM",
     "state": "Italia",
     "postal_code": "00015",
     "latitude": "42.078519",
     "longitude": "12.595892",
     "email": "info@dfmitalia.com",
     "telephone": "069069423",
     "fax": "069060301",
     "title": "D.F.M. S.R.L.",
     "subtitle": "",
     "description": "",
     "label": "Mottura Point"
 }, {
     "id": "296",
     "address": "Via Veroli",
     "number": "snc",
     "city": "Palestrina",
     "district": "RM",
     "state": "Italia",
     "postal_code": "00036",
     "latitude": "41.833346",
     "longitude": "12.885272",
     "email": "mtsdecorhouse@alice.it",
     "telephone": "0695312540",
     "fax": "",
     "title": "MTS DECORHOUSE Srlu",
     "subtitle": "",
     "description": "",
     "label": "Mottura Point"
 }, {
     "id": "297",
     "address": "Via delle Fornaci",
     "number": "48",
     "city": "Roma",
     "district": "RM",
     "state": "Italia",
     "postal_code": "00165",
     "latitude": "41.897388",
     "longitude": "12.456669",
     "email": "pasqualeloguercio@libero.it",
     "telephone": "066374747",
     "fax": "066374747",
     "title": "LOGUERCIO PASQUALE",
     "subtitle": "",
     "description": "",
     "label": "Mottura Point"
 }, {
     "id": "298",
     "address": "Via Giulia",
     "number": "66",
     "city": "Roma",
     "district": "RM",
     "state": "Italia",
     "postal_code": "00186",
     "latitude": "41.898694",
     "longitude": "12.465840",
     "email": "info@lepropostediinterni.it",
     "telephone": "0654229552",
     "fax": "0654211247",
     "title": "LE PROPOSTE DI INTERNI S.R.L.",
     "subtitle": "",
     "description": "",
     "label": "Mottura Point"
 }, {
     "id": "299",
     "address": "Viale Charles Lenormant",
     "number": "178",
     "city": "Roma",
     "district": "RM",
     "state": "Italia",
     "postal_code": "00119",
     "latitude": "41.772990",
     "longitude": "12.329809",
     "email": "m.zei@homehappening.it",
     "telephone": "0652310632",
     "fax": "0652310633",
     "title": "HOME HAPPENING 2000 S.R.L",
     "subtitle": "",
     "description": "",
     "label": "Mottura Point"
 }, {
     "id": "300",
     "address": "Piazza di Santa Cecilia",
     "number": "17",
     "city": "Roma",
     "district": "RM",
     "state": "Italia",
     "postal_code": "00153",
     "latitude": "41.887068",
     "longitude": "12.476808",
     "email": "arredicioccolini@libero.it",
     "telephone": "065880984",
     "fax": "065816916",
     "title": "ARREDICIOCCOLINI S.N.C. di A. E G. CIOCCOLINI",
     "subtitle": "",
     "description": "",
     "label": "Mottura Point"
 }, {
     "id": "301",
     "address": "Via T. Edison",
     "number": "13",
     "city": "Monterotondo",
     "district": "RM",
     "state": "Italia",
     "postal_code": "00015",
     "latitude": "42.077634",
     "longitude": "12.596454",
     "email": "tenco@tencoarredamenti.it",
     "telephone": "069069978",
     "fax": "0690080158",
     "title": "TENCO S.R.L",
     "subtitle": "",
     "description": "",
     "label": "Mottura Point"
 }, {
     "id": "302",
     "address": "Via Giuseppe Ravizza",
     "number": "26",
     "city": "Bergamo",
     "district": "BG",
     "state": "Italia",
     "postal_code": "24126",
     "latitude": "45.680112",
     "longitude": "9.659453",
     "email": "info@tappezzierizanchi.com",
     "telephone": "035312021",
     "fax": "0353840560",
     "title": "ZANCHI MARIO",
     "subtitle": "",
     "description": "",
     "label": "Mottura Point"
 }, {
     "id": "303",
     "address": "Via Giorgione",
     "number": "7",
     "city": "Brescia",
     "district": "BS",
     "state": "Italia",
     "postal_code": "25124",
     "latitude": "45.513680",
     "longitude": "10.249850",
     "email": "info@relaxtendebrescia.it",
     "telephone": "0303731929",
     "fax": "0307833049",
     "title": "RELAX TENDE S.R.L.",
     "subtitle": "",
     "description": "",
     "label": "Mottura Point"
 }, {
     "id": "304",
     "address": "Via Cosentino",
     "number": "29\/31",
     "city": "Catania",
     "district": "CT",
     "state": "Italia",
     "postal_code": "95131",
     "latitude": "37.508828",
     "longitude": "15.089903",
     "email": "arredosrl@yahoo.it",
     "telephone": "0952163594",
     "fax": "",
     "title": "ARREDO' S.r.l.s.",
     "subtitle": "",
     "description": "",
     "label": "Mottura Point"
 }, {
     "id": "305",
     "address": "Via Attin\u00e0",
     "number": "18",
     "city": "Bronte",
     "district": "CT",
     "state": "Italia",
     "postal_code": "95034",
     "latitude": "37.787321",
     "longitude": "14.832891",
     "email": "antonioatelier@libero.it",
     "telephone": "0957722269",
     "fax": "",
     "title": "ROYAL TENDA di FRANCO ANTONIO",
     "subtitle": "",
     "description": "",
     "label": "Mottura Point"
 }, {
     "id": "306",
     "address": "Via Nazionale",
     "number": "52",
     "city": "Troina",
     "district": "EN",
     "state": "Italia",
     "postal_code": "94018",
     "latitude": "37.784516",
     "longitude": "14.594970",
     "email": "",
     "telephone": "0935654737",
     "fax": "0935656008",
     "title": "LA TELA SHOW ROOM S.A.S. di MACCARRONE MARIELLA & C.",
     "subtitle": "",
     "description": "",
     "label": "Mottura Point"
 }, {
     "id": "307",
     "address": "Via Cattafi Stefano",
     "number": "2",
     "city": "Barcellona Pozzo di Gotto",
     "district": "ME",
     "state": "Italia",
     "postal_code": "98051",
     "latitude": "38.148007",
     "longitude": "15.214652",
     "email": "armonietendaggi@alice.it",
     "telephone": "0909795077",
     "fax": "",
     "title": "ARMONIE di ETNA FRANCESCO",
     "subtitle": "",
     "description": "",
     "label": "Mottura Point"
 }, {
     "id": "308",
     "address": "Via Innamorati",
     "number": "193\/B",
     "city": "Giugliano in Campania",
     "district": "NA",
     "state": "Italia",
     "postal_code": "80014",
     "latitude": "40.926205",
     "longitude": "14.183619",
     "email": "ilsofadivenere@libero.it",
     "telephone": "081432379",
     "fax": "081432379",
     "title": "IL SOFA' DI VENERE di CARDONE COSIMO",
     "subtitle": "",
     "description": "",
     "label": "Mottura Point"
 }, {
     "id": "309",
     "address": "Via Vittorio Veneto",
     "number": "40",
     "city": "Parete",
     "district": "CE",
     "state": "Italia",
     "postal_code": "81030",
     "latitude": "40.957649",
     "longitude": "14.163783",
     "email": "arteevanita@libero.it",
     "telephone": "0815030373",
     "fax": "",
     "title": "ARTE E VANITA' DI D'ANGIOLELLA LUCIA",
     "subtitle": "",
     "description": "",
     "label": "Mottura Point"
 }, {
     "id": "310",
     "address": "Via Roma",
     "number": "91",
     "city": "Frattamaggiore",
     "district": "NA",
     "state": "Italia",
     "postal_code": "80027",
     "latitude": "40.938647",
     "longitude": "14.271676",
     "email": "ledecortessuti@libero.it",
     "telephone": "0818801689",
     "fax": "",
     "title": "LE DECOR DI FERRARA AGNESE",
     "subtitle": "",
     "description": "",
     "label": "Mottura Point"
 }, {
     "id": "311",
     "address": "Via Giuseppe Verdi",
     "number": "32",
     "city": "Afragola",
     "district": "NA",
     "state": "Italia",
     "postal_code": "80021",
     "latitude": "40.920261",
     "longitude": "14.299452",
     "email": "marsalzano@gmail.com",
     "telephone": "0818696662",
     "fax": "0813991737",
     "title": "SALZANO U. S.R.L. DI ANTONIO E UMBERTO SALZANO",
     "subtitle": "",
     "description": "",
     "label": "Mottura Point"
 }, {
     "id": "312",
     "address": "Via Mattia Ferrara",
     "number": "2",
     "city": "Casoria",
     "district": "NA",
     "state": "Italia",
     "postal_code": "80026",
     "latitude": "40.898587",
     "longitude": "14.298509",
     "email": "dptendaggi@libero.it",
     "telephone": "0817367244",
     "fax": "",
     "title": "D.P. TENDAGGI di D' EUSTACCHIO PASQUALE",
     "subtitle": "",
     "description": "",
     "label": "Mottura Point"
 }, {
     "id": "313",
     "address": "VIA NAZIONALE APPIA",
     "number": "136",
     "city": "Santa Maria A Vico",
     "district": "CE",
     "state": "Italia",
     "postal_code": "81028",
     "latitude": "41.031576",
     "longitude": "14.462336",
     "email": "giodetendaggi@virgilio.it",
     "telephone": "08231607235 e 3474999879",
     "fax": "",
     "title": "GIODE' S.R.L.",
     "subtitle": "",
     "description": "",
     "label": "Mottura Point"
 },